[{  "市区町村コード" : "172065",  "NO" : "000001",  "都道府県名" : "石川県",  "市区町村名" : "加賀市",  "種別" : "消火栓",  "住所" : "大聖寺馬場町22",  "方書" : "加賀明秀速算塾付近",  "latitude" : "36.3060126",  "longitude" : "136.3083583",  "口径" : "125",  "備考" : ""  },
	{  "市区町村コード" : "172065",  "NO" : "000002",  "都道府県名" : "石川県",  "市区町村名" : "加賀市",  "種別" : "消火栓",  "住所" : "大聖寺馬場町28",  "方書" : "聖城高校校門横",  "latitude" : "36.3059126",  "longitude" : "136.3073584",  "口径" : "250",  "備考" : ""  },
	{  "市区町村コード" : "172065",  "NO" : "000003",  "都道府県名" : "石川県",  "市区町村名" : "加賀市",  "種別" : "消火栓",  "住所" : "大聖寺馬場町17-25",  "方書" : "",  "latitude" : "36.3053265",  "longitude" : "136.3065474",  "口径" : "75",  "備考" : ""  },
	{  "市区町村コード" : "172065",  "NO" : "000004",  "都道府県名" : "石川県",  "市区町村名" : "加賀市",  "種別" : "消火栓",  "住所" : "大聖寺馬場町41-2",  "方書" : "聖城高校グラウンド横",  "latitude" : "36.3065847",  "longitude" : "136.3061419",  "口径" : "350",  "備考" : ""  },
	{  "市区町村コード" : "172065",  "NO" : "000005",  "都道府県名" : "石川県",  "市区町村名" : "加賀市",  "種別" : "消火栓",  "住所" : "大聖寺錦町1-2",  "方書" : "グループホームマイホーム",  "latitude" : "36.3055487",  "longitude" : "136.3056671",  "口径" : "350",  "備考" : ""  },
	{  "市区町村コード" : "172065",  "NO" : "000006",  "都道府県名" : "石川県",  "市区町村名" : "加賀市",  "種別" : "消火栓",  "住所" : "大聖寺錦町49-1",  "方書" : "",  "latitude" : "36.3053431",  "longitude" : "136.3041561",  "口径" : "100",  "備考" : ""  },
	{  "市区町村コード" : "172065",  "NO" : "000007",  "都道府県名" : "石川県",  "市区町村名" : "加賀市",  "種別" : "消火栓",  "住所" : "大聖寺錦町30-4",  "方書" : "錦町集会場裏",  "latitude" : "36.3047126",  "longitude" : "136.3033534",  "口径" : "100",  "備考" : ""  },
	{  "市区町村コード" : "172065",  "NO" : "000008",  "都道府県名" : "石川県",  "市区町村名" : "加賀市",  "種別" : "消火栓",  "住所" : "大聖寺錦町35-1",  "方書" : "㈲宮川組",  "latitude" : "36.3045182",  "longitude" : "136.3029396",  "口径" : "200",  "備考" : ""  },
	{  "市区町村コード" : "172065",  "NO" : "000009",  "都道府県名" : "石川県",  "市区町村名" : "加賀市",  "種別" : "消火栓",  "住所" : "大聖寺地方町14-9-8",  "方書" : "",  "latitude" : "36.3044903",  "longitude" : "136.3016564",  "口径" : "100",  "備考" : ""  },
	{  "市区町村コード" : "172065",  "NO" : "000010",  "都道府県名" : "石川県",  "市区町村名" : "加賀市",  "種別" : "消火栓",  "住所" : "大聖寺地方町13-9-33",  "方書" : "竹内製菓倉庫付近",  "latitude" : "36.3038709",  "longitude" : "136.3008622",  "口径" : "200",  "備考" : ""  },
	{  "市区町村コード" : "172065",  "NO" : "000011",  "都道府県名" : "石川県",  "市区町村名" : "加賀市",  "種別" : "消火栓",  "住所" : "大聖寺地方町14-16-3",  "方書" : "",  "latitude" : "36.3036515",  "longitude" : "136.2999622",  "口径" : "100",  "備考" : ""  },
	{  "市区町村コード" : "172065",  "NO" : "000012",  "都道府県名" : "石川県",  "市区町村名" : "加賀市",  "種別" : "消火栓",  "住所" : "大聖寺地方町15-1-9",  "方書" : "㈲町谷鉄工所向い",  "latitude" : "36.3031154",  "longitude" : "136.2981985",  "口径" : "200",  "備考" : ""  },
	{  "市区町村コード" : "172065",  "NO" : "000013",  "都道府県名" : "石川県",  "市区町村名" : "加賀市",  "種別" : "消火栓",  "住所" : "大聖寺地方町15-7-37",  "方書" : "松任団地自衛消防隊倉庫",  "latitude" : "36.3025155",  "longitude" : "136.2990208",  "口径" : "75",  "備考" : ""  },
	{  "市区町村コード" : "172065",  "NO" : "000014",  "都道府県名" : "石川県",  "市区町村名" : "加賀市",  "種別" : "消火栓",  "住所" : "大聖寺地方町15-7-30",  "方書" : "",  "latitude" : "36.3027766",  "longitude" : "136.2992873",  "口径" : "75",  "備考" : ""  },
	{  "市区町村コード" : "172065",  "NO" : "000015",  "都道府県名" : "石川県",  "市区町村名" : "加賀市",  "種別" : "消火栓",  "住所" : "大聖寺地方町15-11-14",  "方書" : "",  "latitude" : "36.3024822",  "longitude" : "136.2997039",  "口径" : "75",  "備考" : ""  },
	{  "市区町村コード" : "172065",  "NO" : "000016",  "都道府県名" : "石川県",  "市区町村名" : "加賀市",  "種別" : "消火栓",  "住所" : "大聖寺地方町関山馬場ヶ平1-6",  "方書" : "",  "latitude" : "36.3014295",  "longitude" : "136.2987291",  "口径" : "75",  "備考" : ""  },
	{  "市区町村コード" : "172065",  "NO" : "000017",  "都道府県名" : "石川県",  "市区町村名" : "加賀市",  "種別" : "消火栓",  "住所" : "大聖寺地方町15-66-8",  "方書" : "",  "latitude" : "36.3006268",  "longitude" : "136.2983014",  "口径" : "75",  "備考" : ""  },
	{  "市区町村コード" : "172065",  "NO" : "000018",  "都道府県名" : "石川県",  "市区町村名" : "加賀市",  "種別" : "消火栓",  "住所" : "大聖寺関町16-2",  "方書" : "大聖寺関町交差点",  "latitude" : "36.3047488",  "longitude" : "136.3052587",  "口径" : "150",  "備考" : ""  },
	{  "市区町村コード" : "172065",  "NO" : "000019",  "都道府県名" : "石川県",  "市区町村名" : "加賀市",  "種別" : "消火栓",  "住所" : "大聖寺地方町6甲22-7",  "方書" : "和風スナック宮本付近",  "latitude" : "36.3039877",  "longitude" : "136.30472",  "口径" : "250",  "備考" : ""  },
	{  "市区町村コード" : "172065",  "NO" : "000020",  "都道府県名" : "石川県",  "市区町村名" : "加賀市",  "種別" : "消火栓",  "住所" : "大聖寺地方町1-154-8",  "方書" : "労働金庫大聖寺支店向い",  "latitude" : "36.3032158",  "longitude" : "136.3118302",  "口径" : "250",  "備考" : ""  },
	{  "市区町村コード" : "172065",  "NO" : "000021",  "都道府県名" : "石川県",  "市区町村名" : "加賀市",  "種別" : "消火栓",  "住所" : "大聖寺地方町1-10-4",  "方書" : "ユウキ新興店",  "latitude" : "36.3025436",  "longitude" : "136.3107831",  "口径" : "100",  "備考" : ""  },
	{  "市区町村コード" : "172065",  "NO" : "000022",  "都道府県名" : "石川県",  "市区町村名" : "加賀市",  "種別" : "消火栓",  "住所" : "大聖寺地方町6甲63-1",  "方書" : "",  "latitude" : "36.3043238",  "longitude" : "136.3053143",  "口径" : "75",  "備考" : ""  },
	{  "市区町村コード" : "172065",  "NO" : "000023",  "都道府県名" : "石川県",  "市区町村名" : "加賀市",  "種別" : "消火栓",  "住所" : "大聖寺地方町6甲18-11",  "方書" : "",  "latitude" : "36.3037294",  "longitude" : "136.3050171",  "口径" : "100",  "備考" : ""  },
	{  "市区町村コード" : "172065",  "NO" : "000024",  "都道府県名" : "石川県",  "市区町村名" : "加賀市",  "種別" : "消火栓",  "住所" : "大聖寺地方町6乙2-33",  "方書" : "大岩山明王寺前",  "latitude" : "36.3021768",  "longitude" : "136.3040451",  "口径" : "75",  "備考" : ""  },
	{  "市区町村コード" : "172065",  "NO" : "000025",  "都道府県名" : "石川県",  "市区町村名" : "加賀市",  "種別" : "消火栓",  "住所" : "大聖寺地方町6乙2-28",  "方書" : "明王寺鳥居付近",  "latitude" : "36.3028073",  "longitude" : "136.30402",  "口径" : "250",  "備考" : ""  },
	{  "市区町村コード" : "172065",  "NO" : "000026",  "都道府県名" : "石川県",  "市区町村名" : "加賀市",  "種別" : "消火栓",  "住所" : "大聖寺地方町6乙2-25",  "方書" : "",  "latitude" : "36.3026156",  "longitude" : "136.3042061",  "口径" : "75",  "備考" : ""  },
	{  "市区町村コード" : "172065",  "NO" : "000027",  "都道府県名" : "石川県",  "市区町村名" : "加賀市",  "種別" : "消火栓",  "住所" : "大聖寺地方町6乙2-7",  "方書" : "",  "latitude" : "36.3021768",  "longitude" : "136.3040451",  "口径" : "75",  "備考" : ""  },
	{  "市区町村コード" : "172065",  "NO" : "000028",  "都道府県名" : "石川県",  "市区町村名" : "加賀市",  "種別" : "消火栓",  "住所" : "大聖寺地方町6乙49-2",  "方書" : "",  "latitude" : "36.302124",  "longitude" : "136.303073",  "口径" : "250",  "備考" : ""  },
	{  "市区町村コード" : "172065",  "NO" : "000029",  "都道府県名" : "石川県",  "市区町村名" : "加賀市",  "種別" : "消火栓",  "住所" : "大聖寺地方町7-79-7",  "方書" : "錦城中学校校門付近",  "latitude" : "36.3013824",  "longitude" : "136.3024203",  "口径" : "250",  "備考" : ""  },
	{  "市区町村コード" : "172065",  "NO" : "000030",  "都道府県名" : "石川県",  "市区町村名" : "加賀市",  "種別" : "消火栓",  "住所" : "大聖寺地方町7-79-14",  "方書" : "",  "latitude" : "36.3010241",  "longitude" : "136.3017176",  "口径" : "75",  "備考" : ""  },
	{  "市区町村コード" : "172065",  "NO" : "000031",  "都道府県名" : "石川県",  "市区町村名" : "加賀市",  "種別" : "消火栓",  "住所" : "大聖寺地方町7-142-17",  "方書" : "",  "latitude" : "36.3007963",  "longitude" : "136.3016398",  "口径" : "75",  "備考" : ""  },
	{  "市区町村コード" : "172065",  "NO" : "000032",  "都道府県名" : "石川県",  "市区町村名" : "加賀市",  "種別" : "消火栓",  "住所" : "大聖寺地方町7-142-21",  "方書" : "",  "latitude" : "36.3005825",  "longitude" : "136.3022092",  "口径" : "250",  "備考" : ""  },
	{  "市区町村コード" : "172065",  "NO" : "000033",  "都道府県名" : "石川県",  "市区町村名" : "加賀市",  "種別" : "消火栓",  "住所" : "大聖寺地方町7-264-3",  "方書" : "",  "latitude" : "36.299277",  "longitude" : "136.3010567",  "口径" : "250",  "備考" : ""  },
	{  "市区町村コード" : "172065",  "NO" : "000034",  "都道府県名" : "石川県",  "市区町村名" : "加賀市",  "種別" : "消火栓",  "住所" : "熊坂町4-4-11",  "方書" : "",  "latitude" : "36.2980494",  "longitude" : "136.2997485",  "口径" : "100",  "備考" : ""  },
	{  "市区町村コード" : "172065",  "NO" : "000035",  "都道府県名" : "石川県",  "市区町村名" : "加賀市",  "種別" : "消火栓",  "住所" : "熊坂町4-4-15",  "方書" : "白望台入口",  "latitude" : "36.2985632",  "longitude" : "136.3000929",  "口径" : "250",  "備考" : ""  },
	{  "市区町村コード" : "172065",  "NO" : "000036",  "都道府県名" : "石川県",  "市区町村名" : "加賀市",  "種別" : "消火栓",  "住所" : "大聖寺地方町8-29",  "方書" : "",  "latitude" : "36.3023878",  "longitude" : "136.3011092",  "口径" : "75",  "備考" : ""  },
	{  "市区町村コード" : "172065",  "NO" : "000037",  "都道府県名" : "石川県",  "市区町村名" : "加賀市",  "種別" : "消火栓",  "住所" : "熊坂町6-2-8",  "方書" : "白望台公民館付近",  "latitude" : "36.2998825",  "longitude" : "136.299043",  "口径" : "100",  "備考" : ""  },
	{  "市区町村コード" : "172065",  "NO" : "000038",  "都道府県名" : "石川県",  "市区町村名" : "加賀市",  "種別" : "消火栓",  "住所" : "熊坂町6-1-5",  "方書" : "",  "latitude" : "36.2990103",  "longitude" : "136.2981404",  "口径" : "100",  "備考" : ""  },
	{  "市区町村コード" : "172065",  "NO" : "000039",  "都道府県名" : "石川県",  "市区町村名" : "加賀市",  "種別" : "消火栓",  "住所" : "熊坂町6-2-36",  "方書" : "",  "latitude" : "36.2989159",  "longitude" : "136.299018",  "口径" : "100",  "備考" : ""  },
	{  "市区町村コード" : "172065",  "NO" : "000040",  "都道府県名" : "石川県",  "市区町村名" : "加賀市",  "種別" : "消火栓",  "住所" : "大聖寺越前町29",  "方書" : "",  "latitude" : "36.3050293",  "longitude" : "136.3068807",  "口径" : "150",  "備考" : ""  },
	{  "市区町村コード" : "172065",  "NO" : "000041",  "都道府県名" : "石川県",  "市区町村名" : "加賀市",  "種別" : "消火栓",  "住所" : "大聖寺中町45",  "方書" : "はまや理容店",  "latitude" : "36.3044128",  "longitude" : "136.308625",  "口径" : "250",  "備考" : ""  },
	{  "市区町村コード" : "172065",  "NO" : "000042",  "都道府県名" : "石川県",  "市区町村名" : "加賀市",  "種別" : "消火栓",  "住所" : "大聖寺中町56",  "方書" : "電化のワタリ",  "latitude" : "36.3050877",  "longitude" : "136.3087444",  "口径" : "100",  "備考" : ""  },
	{  "市区町村コード" : "172065",  "NO" : "000043",  "都道府県名" : "石川県",  "市区町村名" : "加賀市",  "種別" : "消火栓",  "住所" : "大聖寺中町20",  "方書" : "",  "latitude" : "36.3057043",  "longitude" : "136.3094499",  "口径" : "250",  "備考" : ""  },
	{  "市区町村コード" : "172065",  "NO" : "000044",  "都道府県名" : "石川県",  "市区町村名" : "加賀市",  "種別" : "消火栓",  "住所" : "大聖寺神明町29-6",  "方書" : "",  "latitude" : "36.3040294",  "longitude" : "136.3072252",  "口径" : "100",  "備考" : ""  },
	{  "市区町村コード" : "172065",  "NO" : "000045",  "都道府県名" : "石川県",  "市区町村名" : "加賀市",  "種別" : "消火栓",  "住所" : "大聖寺神明町41-1",  "方書" : "",  "latitude" : "36.3034962",  "longitude" : "136.3080945",  "口径" : "100",  "備考" : ""  },
	{  "市区町村コード" : "172065",  "NO" : "000046",  "都道府県名" : "石川県",  "市区町村名" : "加賀市",  "種別" : "消火栓",  "住所" : "大聖寺神明町3",  "方書" : "本光寺下",  "latitude" : "36.3018603",  "longitude" : "136.3080141",  "口径" : "100",  "備考" : ""  },
	{  "市区町村コード" : "172065",  "NO" : "000047",  "都道府県名" : "石川県",  "市区町村名" : "加賀市",  "種別" : "消火栓",  "住所" : "大聖寺神明町1",  "方書" : "全昌寺",  "latitude" : "36.3013326",  "longitude" : "136.3087057",  "口径" : "100",  "備考" : ""  },
	{  "市区町村コード" : "172065",  "NO" : "000048",  "都道府県名" : "石川県",  "市区町村名" : "加賀市",  "種別" : "消火栓",  "住所" : "大聖寺下屋敷町イ13",  "方書" : "",  "latitude" : "36.3009826",  "longitude" : "136.3089751",  "口径" : "75",  "備考" : ""  },
	{  "市区町村コード" : "172065",  "NO" : "000049",  "都道府県名" : "石川県",  "市区町村名" : "加賀市",  "種別" : "消火栓",  "住所" : "大聖寺下屋敷町ヌ23-17",  "方書" : "川上芳雄宅向い",  "latitude" : "36.298819",  "longitude" : "136.3087336",  "口径" : "75",  "備考" : ""  },
	{  "市区町村コード" : "172065",  "NO" : "000050",  "都道府県名" : "石川県",  "市区町村名" : "加賀市",  "種別" : "消火栓",  "住所" : "大聖寺地方町2-6-13",  "方書" : "",  "latitude" : "36.3004965",  "longitude" : "136.3079058",  "口径" : "75",  "備考" : ""  },
	{  "市区町村コード" : "172065",  "NO" : "000051",  "都道府県名" : "石川県",  "市区町村名" : "加賀市",  "種別" : "消火栓",  "住所" : "大聖寺下屋敷町イ5-1",  "方書" : "",  "latitude" : "36.3009771",  "longitude" : "136.3092223",  "口径" : "100",  "備考" : ""  },
	{  "市区町村コード" : "172065",  "NO" : "000052",  "都道府県名" : "石川県",  "市区町村名" : "加賀市",  "種別" : "消火栓",  "住所" : "大聖寺下屋敷町4",  "方書" : "下屋敷公民館付近",  "latitude" : "36.3007632",  "longitude" : "136.3089473",  "口径" : "150",  "備考" : ""  },
	{  "市区町村コード" : "172065",  "NO" : "000053",  "都道府県名" : "石川県",  "市区町村名" : "加賀市",  "種別" : "消火栓",  "住所" : "大聖寺下屋敷町28甲",  "方書" : "蓮光寺",  "latitude" : "36.2990717",  "longitude" : "136.3088724",  "口径" : "150",  "備考" : ""  },
	{  "市区町村コード" : "172065",  "NO" : "000054",  "都道府県名" : "石川県",  "市区町村名" : "加賀市",  "種別" : "消火栓",  "住所" : "大聖寺新屋敷町14",  "方書" : "天日歯科",  "latitude" : "36.3038962",  "longitude" : "136.3103081",  "口径" : "250",  "備考" : ""  },
	{  "市区町村コード" : "172065",  "NO" : "000055",  "都道府県名" : "石川県",  "市区町村名" : "加賀市",  "種別" : "消火栓",  "住所" : "大聖寺五軒町40",  "方書" : "願成寺裏",  "latitude" : "36.3050489",  "longitude" : "136.3115302",  "口径" : "150",  "備考" : ""  },
	{  "市区町村コード" : "172065",  "NO" : "000056",  "都道府県名" : "石川県",  "市区町村名" : "加賀市",  "種別" : "消火栓",  "住所" : "大聖寺五軒町22",  "方書" : "",  "latitude" : "36.3046878",  "longitude" : "136.3107831",  "口径" : "100",  "備考" : ""  },
	{  "市区町村コード" : "172065",  "NO" : "000057",  "都道府県名" : "石川県",  "市区町村名" : "加賀市",  "種別" : "消火栓",  "住所" : "大聖寺中新道56",  "方書" : "㈲旭硝子建材社付近",  "latitude" : "36.3037712",  "longitude" : "136.3088805",  "口径" : "150",  "備考" : ""  },
	{  "市区町村コード" : "172065",  "NO" : "000058",  "都道府県名" : "石川県",  "市区町村名" : "加賀市",  "種別" : "消火栓",  "住所" : "大聖寺中新道26-1",  "方書" : "熊坂川付近（城南橋～曙橋間）",  "latitude" : "36.304385",  "longitude" : "136.3096804",  "口径" : "150",  "備考" : ""  },
	{  "市区町村コード" : "172065",  "NO" : "000059",  "都道府県名" : "石川県",  "市区町村名" : "加賀市",  "種別" : "消火栓",  "住所" : "大聖寺魚町37",  "方書" : "山本吉太郎",  "latitude" : "36.3056044",  "longitude" : "136.3102442",  "口径" : "150",  "備考" : ""  },
	{  "市区町村コード" : "172065",  "NO" : "000060",  "都道府県名" : "石川県",  "市区町村名" : "加賀市",  "種別" : "消火栓",  "住所" : "大聖寺魚町10",  "方書" : "正来医院裏",  "latitude" : "36.3060404",  "longitude" : "136.3103609",  "口径" : "150",  "備考" : ""  },
	{  "市区町村コード" : "172065",  "NO" : "000061",  "都道府県名" : "石川県",  "市区町村名" : "加賀市",  "種別" : "消火栓",  "住所" : "大聖寺観音町32",  "方書" : "フードショップやました",  "latitude" : "36.3048739",  "longitude" : "136.3099526",  "口径" : "100",  "備考" : ""  },
	{  "市区町村コード" : "172065",  "NO" : "000062",  "都道府県名" : "石川県",  "市区町村名" : "加賀市",  "種別" : "消火栓",  "住所" : "大聖寺東横町54",  "方書" : "",  "latitude" : "36.3038129",  "longitude" : "136.3116052",  "口径" : "100",  "備考" : ""  },
	{  "市区町村コード" : "172065",  "NO" : "000063",  "都道府県名" : "石川県",  "市区町村名" : "加賀市",  "種別" : "消火栓",  "住所" : "大聖寺東横町30",  "方書" : "石田建設",  "latitude" : "36.3046212",  "longitude" : "136.3115775",  "口径" : "75",  "備考" : ""  },
	{  "市区町村コード" : "172065",  "NO" : "000064",  "都道府県名" : "石川県",  "市区町村名" : "加賀市",  "種別" : "消火栓",  "住所" : "大聖寺本町ｲ17-1",  "方書" : "熊坂川沿い",  "latitude" : "36.3071903",  "longitude" : "136.3087332",  "口径" : "125",  "備考" : ""  },
	{  "市区町村コード" : "172065",  "NO" : "000065",  "都道府県名" : "石川県",  "市区町村名" : "加賀市",  "種別" : "消火栓",  "住所" : "大聖寺本町67",  "方書" : "モード高松",  "latitude" : "36.3068903",  "longitude" : "136.3100164",  "口径" : "250",  "備考" : ""  },
	{  "市区町村コード" : "172065",  "NO" : "000066",  "都道府県名" : "石川県",  "市区町村名" : "加賀市",  "種別" : "消火栓",  "住所" : "大聖寺本町19",  "方書" : "慶徳寺",  "latitude" : "36.3068959",  "longitude" : "136.3108747",  "口径" : "100",  "備考" : ""  },
	{  "市区町村コード" : "172065",  "NO" : "000067",  "都道府県名" : "石川県",  "市区町村名" : "加賀市",  "種別" : "消火栓",  "住所" : "大聖寺本町31",  "方書" : "敷中自転車店",  "latitude" : "36.3067265",  "longitude" : "136.3118357",  "口径" : "150",  "備考" : ""  },
	{  "市区町村コード" : "172065",  "NO" : "000068",  "都道府県名" : "石川県",  "市区町村名" : "加賀市",  "種別" : "消火栓",  "住所" : "大聖寺京町1",  "方書" : "大聖寺地区会館",  "latitude" : "36.307282",  "longitude" : "136.3104552",  "口径" : "250",  "備考" : ""  },
	{  "市区町村コード" : "172065",  "NO" : "000069",  "都道府県名" : "石川県",  "市区町村名" : "加賀市",  "種別" : "消火栓",  "住所" : "大聖寺八間道30-1",  "方書" : "錦城小グラウンド/簡易グラウンド間",  "latitude" : "36.3074875",  "longitude" : "136.3101663",  "口径" : "100",  "備考" : ""  },
	{  "市区町村コード" : "172065",  "NO" : "000070",  "都道府県名" : "石川県",  "市区町村名" : "加賀市",  "種別" : "消火栓",  "住所" : "大聖寺八間道68",  "方書" : "幼児教育相談室",  "latitude" : "36.3082957",  "longitude" : "136.3098193",  "口径" : "100",  "備考" : ""  },
	{  "市区町村コード" : "172065",  "NO" : "000071",  "都道府県名" : "石川県",  "市区町村名" : "加賀市",  "種別" : "消火栓",  "住所" : "大聖寺八間道51-1",  "方書" : "錦城保育所付近",  "latitude" : "36.3074875",  "longitude" : "136.3101663",  "口径" : "350",  "備考" : ""  },
	{  "市区町村コード" : "172065",  "NO" : "000072",  "都道府県名" : "石川県",  "市区町村名" : "加賀市",  "種別" : "消火栓",  "住所" : "大聖寺八間道55",  "方書" : "熊坂川沿い",  "latitude" : "36.3091622",  "longitude" : "136.3078",  "口径" : "125",  "備考" : ""  },
	{  "市区町村コード" : "172065",  "NO" : "000073",  "都道府県名" : "石川県",  "市区町村名" : "加賀市",  "種別" : "消火栓",  "住所" : "大聖寺八間道90",  "方書" : "新橋手前",  "latitude" : "36.3091318",  "longitude" : "136.3114801",  "口径" : "250",  "備考" : ""  },
	{  "市区町村コード" : "172065",  "NO" : "000074",  "都道府県名" : "石川県",  "市区町村名" : "加賀市",  "種別" : "消火栓",  "住所" : "大聖寺京町53",  "方書" : "横川行政書士事務所付近",  "latitude" : "36.3069959",  "longitude" : "136.3118551",  "口径" : "250",  "備考" : ""  },
	{  "市区町村コード" : "172065",  "NO" : "000075",  "都道府県名" : "石川県",  "市区町村名" : "加賀市",  "種別" : "消火栓",  "住所" : "大聖寺仲町3",  "方書" : "㈲水口製材所",  "latitude" : "36.3093068",  "longitude" : "136.3120939",  "口径" : "100",  "備考" : ""  },
	{  "市区町村コード" : "172065",  "NO" : "000076",  "都道府県名" : "石川県",  "市区町村名" : "加賀市",  "種別" : "消火栓",  "住所" : "大聖寺仲町16-2",  "方書" : "岡西俊明行政書士",  "latitude" : "36.3082763",  "longitude" : "136.3114107",  "口径" : "100",  "備考" : ""  },
	{  "市区町村コード" : "172065",  "NO" : "000077",  "都道府県名" : "石川県",  "市区町村名" : "加賀市",  "種別" : "消火栓",  "住所" : "大聖寺福田町30",  "方書" : "福田橋詰め",  "latitude" : "36.3096262",  "longitude" : "136.3127048",  "口径" : "100",  "備考" : ""  },
	{  "市区町村コード" : "172065",  "NO" : "000078",  "都道府県名" : "石川県",  "市区町村名" : "加賀市",  "種別" : "消火栓",  "住所" : "大聖寺福田町15",  "方書" : "山田木材店事務所",  "latitude" : "36.3084624",  "longitude" : "136.3125327",  "口径" : "150",  "備考" : ""  },
	{  "市区町村コード" : "172065",  "NO" : "000079",  "都道府県名" : "石川県",  "市区町村名" : "加賀市",  "種別" : "消火栓",  "住所" : "大聖寺福田町64",  "方書" : "三森快生薬局付近",  "latitude" : "36.307532",  "longitude" : "136.3119828",  "口径" : "150",  "備考" : ""  },
	{  "市区町村コード" : "172065",  "NO" : "000080",  "都道府県名" : "石川県",  "市区町村名" : "加賀市",  "種別" : "消火栓",  "住所" : "大聖寺鷹匠町15",  "方書" : "山田建築設計事務所",  "latitude" : "36.308343",  "longitude" : "136.3132994",  "口径" : "100",  "備考" : ""  },
	{  "市区町村コード" : "172065",  "NO" : "000081",  "都道府県名" : "石川県",  "市区町村名" : "加賀市",  "種別" : "消火栓",  "住所" : "大聖寺鷹匠町20-2",  "方書" : "鹿野博志",  "latitude" : "36.3073209",  "longitude" : "136.3133966",  "口径" : "150",  "備考" : ""  },
	{  "市区町村コード" : "172065",  "NO" : "000082",  "都道府県名" : "石川県",  "市区町村名" : "加賀市",  "種別" : "消火栓",  "住所" : "大聖寺鷹匠町30-1",  "方書" : "北陸銀行加賀荘",  "latitude" : "36.3084208",  "longitude" : "136.3138354",  "口径" : "100",  "備考" : ""  },
	{  "市区町村コード" : "172065",  "NO" : "000083",  "都道府県名" : "石川県",  "市区町村名" : "加賀市",  "種別" : "消火栓",  "住所" : "大聖寺法華坊町2-2",  "方書" : "小川撚糸㈱",  "latitude" : "36.3074293",  "longitude" : "136.3140188",  "口径" : "100",  "備考" : ""  },
	{  "市区町村コード" : "172065",  "NO" : "000084",  "都道府県名" : "石川県",  "市区町村名" : "加賀市",  "種別" : "消火栓",  "住所" : "大聖寺法華坊町55-2",  "方書" : "法華坊町公民館付近",  "latitude" : "36.3057767",  "longitude" : "136.3150797",  "口径" : "150",  "備考" : ""  },
	{  "市区町村コード" : "172065",  "NO" : "000085",  "都道府県名" : "石川県",  "市区町村名" : "加賀市",  "種別" : "消火栓",  "住所" : "大聖寺法華坊町29-1",  "方書" : "法華坊交差点",  "latitude" : "36.3065016",  "longitude" : "136.313941",  "口径" : "150",  "備考" : ""  },
	{  "市区町村コード" : "172065",  "NO" : "000086",  "都道府県名" : "石川県",  "市区町村名" : "加賀市",  "種別" : "消火栓",  "住所" : "大聖寺京町9",  "方書" : "堀江陶器店",  "latitude" : "36.3071598",  "longitude" : "136.3111302",  "口径" : "100",  "備考" : ""  },
	{  "市区町村コード" : "172065",  "NO" : "000087",  "都道府県名" : "石川県",  "市区町村名" : "加賀市",  "種別" : "消火栓",  "住所" : "大聖寺京町23",  "方書" : "亀田屋ふとん店",  "latitude" : "36.3067737",  "longitude" : "136.3125577",  "口径" : "100",  "備考" : ""  },
	{  "市区町村コード" : "172065",  "NO" : "000088",  "都道府県名" : "石川県",  "市区町村名" : "加賀市",  "種別" : "消火栓",  "住所" : "大聖寺鍛冶町18",  "方書" : "鍛冶町交差点",  "latitude" : "36.3054933",  "longitude" : "136.3129217",  "口径" : "150",  "備考" : ""  },
	{  "市区町村コード" : "172065",  "NO" : "000089",  "都道府県名" : "石川県",  "市区町村名" : "加賀市",  "種別" : "消火栓",  "住所" : "大聖寺山田町20-1",  "方書" : "栄楽寿し付近",  "latitude" : "36.3058794",  "longitude" : "136.3120995",  "口径" : "150",  "備考" : ""  },
	{  "市区町村コード" : "172065",  "NO" : "000090",  "都道府県名" : "石川県",  "市区町村名" : "加賀市",  "種別" : "消火栓",  "住所" : "大聖寺十一町11",  "方書" : "北國銀行裏",  "latitude" : "36.3037963",  "longitude" : "136.3123329",  "口径" : "100",  "備考" : ""  },
	{  "市区町村コード" : "172065",  "NO" : "000091",  "都道府県名" : "石川県",  "市区町村名" : "加賀市",  "種別" : "消火栓",  "住所" : "大聖寺一本橋町13",  "方書" : "空　書店",  "latitude" : "36.3046184",  "longitude" : "136.3126856",  "口径" : "200",  "備考" : ""  },
	{  "市区町村コード" : "172065",  "NO" : "000092",  "都道府県名" : "石川県",  "市区町村名" : "加賀市",  "種別" : "消火栓",  "住所" : "大聖寺南町ニ41",  "方書" : "大聖寺分署",  "latitude" : "36.3026826",  "longitude" : "136.3148937",  "口径" : "100",  "備考" : ""  },
	{  "市区町村コード" : "172065",  "NO" : "000093",  "都道府県名" : "石川県",  "市区町村名" : "加賀市",  "種別" : "消火栓",  "住所" : "大聖寺南町ニ81-2",  "方書" : "(有)原工務店",  "latitude" : "36.3017327",  "longitude" : "136.3155993",  "口径" : "75",  "備考" : ""  },
	{  "市区町村コード" : "172065",  "NO" : "000094",  "都道府県名" : "石川県",  "市区町村名" : "加賀市",  "種別" : "消火栓",  "住所" : "大聖寺南町ニ41",  "方書" : "市役所正面花壇内",  "latitude" : "36.3026826",  "longitude" : "136.3148937",  "口径" : "150",  "備考" : ""  },
	{  "市区町村コード" : "172065",  "NO" : "000095",  "都道府県名" : "石川県",  "市区町村名" : "加賀市",  "種別" : "消火栓",  "住所" : "大聖寺南町ニ41",  "方書" : "市役所前西側駐車場",  "latitude" : "36.3026826",  "longitude" : "136.3148937",  "口径" : "150",  "備考" : ""  },
	{  "市区町村コード" : "172065",  "NO" : "000096",  "都道府県名" : "石川県",  "市区町村名" : "加賀市",  "種別" : "消火栓",  "住所" : "大聖寺南町ホ7-8",  "方書" : "大聖寺南町交差点",  "latitude" : "36.3033363",  "longitude" : "136.3127683",  "口径" : "250",  "備考" : ""  },
	{  "市区町村コード" : "172065",  "NO" : "000097",  "都道府県名" : "石川県",  "市区町村名" : "加賀市",  "種別" : "消火栓",  "住所" : "大聖寺南町ホ28-3",  "方書" : "旧 加賀リビング",  "latitude" : "36.3020854",  "longitude" : "136.3134106",  "口径" : "150",  "備考" : ""  },
	{  "市区町村コード" : "172065",  "NO" : "000098",  "都道府県名" : "石川県",  "市区町村名" : "加賀市",  "種別" : "消火栓",  "住所" : "大聖寺南町ホ21-10",  "方書" : "大橋陸良",  "latitude" : "36.3023298",  "longitude" : "136.3131468",  "口径" : "100",  "備考" : ""  },
	{  "市区町村コード" : "172065",  "NO" : "000099",  "都道府県名" : "石川県",  "市区町村名" : "加賀市",  "種別" : "消火栓",  "住所" : "大聖寺南町チ70-3",  "方書" : "焼肉あったまろ",  "latitude" : "36.3020215",  "longitude" : "136.3123024",  "口径" : "100",  "備考" : ""  },
	{  "市区町村コード" : "172065",  "NO" : "000100",  "都道府県名" : "石川県",  "市区町村名" : "加賀市",  "種別" : "消火栓",  "住所" : "大聖寺南町チ35-7",  "方書" : "旧 大和屋裏",  "latitude" : "36.3026631",  "longitude" : "136.3123524",  "口径" : "75",  "備考" : ""  },
	{  "市区町村コード" : "172065",  "NO" : "000101",  "都道府県名" : "石川県",  "市区町村名" : "加賀市",  "種別" : "消火栓",  "住所" : "大聖寺南町ホ35",  "方書" : "照　食堂　　　　　　　",  "latitude" : "36.3022354",  "longitude" : "136.3132218",  "口径" : "100",  "備考" : ""  },
	{  "市区町村コード" : "172065",  "NO" : "000102",  "都道府県名" : "石川県",  "市区町村名" : "加賀市",  "種別" : "消火栓",  "住所" : "大聖寺南町ニ5-1",  "方書" : "市民会館裏ＪＲ沿い",  "latitude" : "36.3015827",  "longitude" : "136.3149966",  "口径" : "75",  "備考" : ""  },
	{  "市区町村コード" : "172065",  "NO" : "000103",  "都道府県名" : "石川県",  "市区町村名" : "加賀市",  "種別" : "消火栓",  "住所" : "大聖寺南町チ108",  "方書" : "味処一本田",  "latitude" : "36.301766",  "longitude" : "136.312558",  "口径" : "150",  "備考" : ""  },
	{  "市区町村コード" : "172065",  "NO" : "000104",  "都道府県名" : "石川県",  "市区町村名" : "加賀市",  "種別" : "消火栓",  "住所" : "大聖寺南町イ18-2",  "方書" : "橋本モータース駐車場",  "latitude" : "36.3041214",  "longitude" : "136.3159713",  "口径" : "75",  "備考" : ""  },
	{  "市区町村コード" : "172065",  "NO" : "000105",  "都道府県名" : "石川県",  "市区町村名" : "加賀市",  "種別" : "消火栓",  "住所" : "大聖寺荒町61",  "方書" : "武村眼科医院",  "latitude" : "36.3052128",  "longitude" : "136.3136715",  "口径" : "100",  "備考" : ""  },
	{  "市区町村コード" : "172065",  "NO" : "000106",  "都道府県名" : "石川県",  "市区町村名" : "加賀市",  "種別" : "消火栓",  "住所" : "大聖寺荒町51",  "方書" : "",  "latitude" : "36.3053517",  "longitude" : "136.3146492",  "口径" : "100",  "備考" : ""  },
	{  "市区町村コード" : "172065",  "NO" : "000107",  "都道府県名" : "石川県",  "市区町村名" : "加賀市",  "種別" : "消火栓",  "住所" : "大聖寺荒町37",  "方書" : "梶鉄工設備",  "latitude" : "36.3054073",  "longitude" : "136.3158435",  "口径" : "300",  "備考" : ""  },
	{  "市区町村コード" : "172065",  "NO" : "000108",  "都道府県名" : "石川県",  "市区町村名" : "加賀市",  "種別" : "消火栓",  "住所" : "大聖寺鉄砲町54",  "方書" : "喜美寿し　　",  "latitude" : "36.3044601",  "longitude" : "136.3134522",  "口径" : "100",  "備考" : ""  },
	{  "市区町村コード" : "172065",  "NO" : "000109",  "都道府県名" : "石川県",  "市区町村名" : "加賀市",  "種別" : "消火栓",  "住所" : "大聖寺鉄砲町11",  "方書" : "専称寺",  "latitude" : "36.3046907",  "longitude" : "136.3145409",  "口径" : "100",  "備考" : ""  },
	{  "市区町村コード" : "172065",  "NO" : "000110",  "都道府県名" : "石川県",  "市区町村名" : "加賀市",  "種別" : "消火栓",  "住所" : "大聖寺田原町6-1",  "方書" : "メナード化粧品加賀加南代理店",  "latitude" : "36.3047657",  "longitude" : "136.3156075",  "口径" : "300",  "備考" : ""  },
	{  "市区町村コード" : "172065",  "NO" : "000111",  "都道府県名" : "石川県",  "市区町村名" : "加賀市",  "種別" : "消火栓",  "住所" : "大聖寺弓町68",  "方書" : "きもの処にしの",  "latitude" : "36.3055462",  "longitude" : "136.3161713",  "口径" : "300",  "備考" : ""  },
	{  "市区町村コード" : "172065",  "NO" : "000112",  "都道府県名" : "石川県",  "市区町村名" : "加賀市",  "種別" : "消火栓",  "住所" : "大聖寺弓町60",  "方書" : "栄明館",  "latitude" : "36.3059489",  "longitude" : "136.3169656",  "口径" : "300",  "備考" : ""  },
	{  "市区町村コード" : "172065",  "NO" : "000113",  "都道府県名" : "石川県",  "市区町村名" : "加賀市",  "種別" : "消火栓",  "住所" : "大聖寺弓町52",  "方書" : "菊池歯科医院",  "latitude" : "36.3063239",  "longitude" : "136.3177405",  "口径" : "300",  "備考" : ""  },
	{  "市区町村コード" : "172065",  "NO" : "000114",  "都道府県名" : "石川県",  "市区町村名" : "加賀市",  "種別" : "消火栓",  "住所" : "大聖寺弓町38",  "方書" : "",  "latitude" : "36.3068794",  "longitude" : "136.3187126",  "口径" : "150",  "備考" : ""  },
	{  "市区町村コード" : "172065",  "NO" : "000115",  "都道府県名" : "石川県",  "市区町村名" : "加賀市",  "種別" : "消火栓",  "住所" : "大聖寺木呂場町19",  "方書" : "㈲中部労務管理研究センター付近",  "latitude" : "36.3074266",  "longitude" : "136.3179127",  "口径" : "200",  "備考" : ""  },
	{  "市区町村コード" : "172065",  "NO" : "000116",  "都道府県名" : "石川県",  "市区町村名" : "加賀市",  "種別" : "消火栓",  "住所" : "大聖寺菅生町16",  "方書" : "菅生交差点付近",  "latitude" : "36.3072517",  "longitude" : "136.3201458",  "口径" : "150",  "備考" : ""  },
	{  "市区町村コード" : "172065",  "NO" : "000117",  "都道府県名" : "石川県",  "市区町村名" : "加賀市",  "種別" : "消火栓",  "住所" : "大聖寺永町56",  "方書" : "セレモニーホールタカダ　　",  "latitude" : "36.3104096",  "longitude" : "136.3202679",  "口径" : "150",  "備考" : ""  },
	{  "市区町村コード" : "172065",  "NO" : "000118",  "都道府県名" : "石川県",  "市区町村名" : "加賀市",  "種別" : "消火栓",  "住所" : "大聖寺永町ハ11",  "方書" : "",  "latitude" : "36.3106512",  "longitude" : "136.3196567",  "口径" : "75",  "備考" : ""  },
	{  "市区町村コード" : "172065",  "NO" : "000119",  "都道府県名" : "石川県",  "市区町村名" : "加賀市",  "種別" : "消火栓",  "住所" : "大聖寺永町ニ225-1",  "方書" : "東永橋付近",  "latitude" : "36.310543",  "longitude" : "136.3215788",  "口径" : "75",  "備考" : ""  },
	{  "市区町村コード" : "172065",  "NO" : "000120",  "都道府県名" : "石川県",  "市区町村名" : "加賀市",  "種別" : "消火栓",  "住所" : "大聖寺永町42",  "方書" : "",  "latitude" : "36.3100374",  "longitude" : "136.3204151",  "口径" : "150",  "備考" : ""  },
	{  "市区町村コード" : "172065",  "NO" : "000121",  "都道府県名" : "石川県",  "市区町村名" : "加賀市",  "種別" : "消火栓",  "住所" : "大聖寺永町ハ24-5",  "方書" : "",  "latitude" : "36.3099597",  "longitude" : "136.3197903",  "口径" : "75",  "備考" : ""  },
	{  "市区町村コード" : "172065",  "NO" : "000122",  "都道府県名" : "石川県",  "市区町村名" : "加賀市",  "種別" : "消火栓",  "住所" : "大聖寺永町27",  "方書" : "(有)酒のはし本",  "latitude" : "36.3089654",  "longitude" : "136.3203651",  "口径" : "150",  "備考" : ""  },
	{  "市区町村コード" : "172065",  "NO" : "000123",  "都道府県名" : "石川県",  "市区町村名" : "加賀市",  "種別" : "消火栓",  "住所" : "大聖寺永町133",  "方書" : "",  "latitude" : "36.3082877",  "longitude" : "136.3215789",  "口径" : "250",  "備考" : ""  },
	{  "市区町村コード" : "172065",  "NO" : "000124",  "都道府県名" : "石川県",  "市区町村名" : "加賀市",  "種別" : "消火栓",  "住所" : "大聖寺永町138",  "方書" : "",  "latitude" : "36.3082404",  "longitude" : "136.3207373",  "口径" : "300",  "備考" : ""  },
	{  "市区町村コード" : "172065",  "NO" : "000125",  "都道府県名" : "石川県",  "市区町村名" : "加賀市",  "種別" : "消火栓",  "住所" : "大聖寺永町142",  "方書" : "",  "latitude" : "36.3104096",  "longitude" : "136.3202679",  "口径" : "75",  "備考" : ""  },
	{  "市区町村コード" : "172065",  "NO" : "000126",  "都道府県名" : "石川県",  "市区町村名" : "加賀市",  "種別" : "消火栓",  "住所" : "大聖寺永町ホ143-1",  "方書" : "山村板金作業場付近",  "latitude" : "36.3072628",  "longitude" : "136.32179",  "口径" : "75",  "備考" : ""  },
	{  "市区町村コード" : "172065",  "NO" : "000127",  "都道府県名" : "石川県",  "市区町村名" : "加賀市",  "種別" : "消火栓",  "住所" : "大聖寺永町イ64",  "方書" : "大聖寺高校グランド裏",  "latitude" : "36.3080488",  "longitude" : "136.3193847",  "口径" : "150",  "備考" : ""  },
	{  "市区町村コード" : "172065",  "NO" : "000128",  "都道府県名" : "石川県",  "市区町村名" : "加賀市",  "種別" : "消火栓",  "住所" : "大聖寺天神下町15",  "方書" : "菅生石部神社付近",  "latitude" : "36.3123705",  "longitude" : "136.3207927",  "口径" : "100",  "備考" : ""  },
	{  "市区町村コード" : "172065",  "NO" : "000129",  "都道府県名" : "石川県",  "市区町村名" : "加賀市",  "種別" : "消火栓",  "住所" : "大聖寺藤ノ木町14-5",  "方書" : "",  "latitude" : "36.3121983",  "longitude" : "136.3198679",  "口径" : "150",  "備考" : ""  },
	{  "市区町村コード" : "172065",  "NO" : "000130",  "都道府県名" : "石川県",  "市区町村名" : "加賀市",  "種別" : "消火栓",  "住所" : "大聖寺大名竹町3",  "方書" : "",  "latitude" : "36.310865",  "longitude" : "136.3167738",  "口径" : "150",  "備考" : ""  },
	{  "市区町村コード" : "172065",  "NO" : "000131",  "都道府県名" : "石川県",  "市区町村名" : "加賀市",  "種別" : "消火栓",  "住所" : "大聖寺大名竹町11",  "方書" : "錦城大橋中継ポンプ場",  "latitude" : "36.3106623",  "longitude" : "136.3173043",  "口径" : "150",  "備考" : ""  },
	{  "市区町村コード" : "172065",  "NO" : "000132",  "都道府県名" : "石川県",  "市区町村名" : "加賀市",  "種別" : "消火栓",  "住所" : "大聖寺大名竹町14",  "方書" : "",  "latitude" : "36.3105179",  "longitude" : "136.3177209",  "口径" : "150",  "備考" : ""  },
	{  "市区町村コード" : "172065",  "NO" : "000133",  "都道府県名" : "石川県",  "市区町村名" : "加賀市",  "種別" : "消火栓",  "住所" : "大聖寺耳聞山仲町2",  "方書" : "",  "latitude" : "36.3100707",  "longitude" : "136.3174043",  "口径" : "75",  "備考" : ""  },
	{  "市区町村コード" : "172065",  "NO" : "000134",  "都道府県名" : "石川県",  "市区町村名" : "加賀市",  "種別" : "消火栓",  "住所" : "大聖寺亀町13-1",  "方書" : "",  "latitude" : "36.3103679",  "longitude" : "136.3166266",  "口径" : "150",  "備考" : ""  },
	{  "市区町村コード" : "172065",  "NO" : "000135",  "都道府県名" : "石川県",  "市区町村名" : "加賀市",  "種別" : "消火栓",  "住所" : "大聖寺上福田町38",  "方書" : "",  "latitude" : "36.3108122",  "longitude" : "136.3154657",  "口径" : "75",  "備考" : ""  },
	{  "市区町村コード" : "172065",  "NO" : "000136",  "都道府県名" : "石川県",  "市区町村名" : "加賀市",  "種別" : "消火栓",  "住所" : "大聖寺耳聞山町1",  "方書" : "",  "latitude" : "36.3093291",  "longitude" : "136.3174849",  "口径" : "100",  "備考" : ""  },
	{  "市区町村コード" : "172065",  "NO" : "000137",  "都道府県名" : "石川県",  "市区町村名" : "加賀市",  "種別" : "消火栓",  "住所" : "大聖寺耳聞山町1-4",  "方書" : "一文橋詰め",  "latitude" : "36.3091847",  "longitude" : "136.3176793",  "口径" : "150",  "備考" : ""  },
	{  "市区町村コード" : "172065",  "NO" : "000138",  "都道府県名" : "石川県",  "市区町村名" : "加賀市",  "種別" : "消火栓",  "住所" : "大聖寺耳聞山町37",  "方書" : "ホワイト急便耳聞山(営)",  "latitude" : "36.3095068",  "longitude" : "136.316024",  "口径" : "200",  "備考" : ""  },
	{  "市区町村コード" : "172065",  "NO" : "000139",  "都道府県名" : "石川県",  "市区町村名" : "加賀市",  "種別" : "消火栓",  "住所" : "大聖寺耳聞山町31-4",  "方書" : "大聖寺松ヶ根町境",  "latitude" : "36.3100151",  "longitude" : "136.3144658",  "口径" : "200",  "備考" : ""  },
	{  "市区町村コード" : "172065",  "NO" : "000140",  "都道府県名" : "石川県",  "市区町村名" : "加賀市",  "種別" : "消火栓",  "住所" : "大聖寺耳聞山町63-4",  "方書" : "クランク道",  "latitude" : "36.3094291",  "longitude" : "136.3149408",  "口径" : "75",  "備考" : ""  },
	{  "市区町村コード" : "172065",  "NO" : "000141",  "都道府県名" : "石川県",  "市区町村名" : "加賀市",  "種別" : "消火栓",  "住所" : "大聖寺耳聞山町71-1",  "方書" : "",  "latitude" : "36.3094679",  "longitude" : "136.3142186",  "口径" : "100",  "備考" : ""  },
	{  "市区町村コード" : "172065",  "NO" : "000142",  "都道府県名" : "石川県",  "市区町村名" : "加賀市",  "種別" : "消火栓",  "住所" : "大聖寺耳聞山町85-1",  "方書" : "石黒クリニック",  "latitude" : "36.3087486",  "longitude" : "136.3157351",  "口径" : "200",  "備考" : ""  },
	{  "市区町村コード" : "172065",  "NO" : "000143",  "都道府県名" : "石川県",  "市区町村名" : "加賀市",  "種別" : "消火栓",  "住所" : "大聖寺耳聞山町55",  "方書" : "",  "latitude" : "36.3086236",  "longitude" : "136.317185",  "口径" : "75",  "備考" : ""  },
	{  "市区町村コード" : "172065",  "NO" : "000144",  "都道府県名" : "石川県",  "市区町村名" : "加賀市",  "種別" : "消火栓",  "住所" : "大聖寺耳聞山町86-8",  "方書" : "クスリのアオキ",  "latitude" : "36.308032",  "longitude" : "136.3164961",  "口径" : "200",  "備考" : ""  },
	{  "市区町村コード" : "172065",  "NO" : "000145",  "都道府県名" : "石川県",  "市区町村名" : "加賀市",  "種別" : "消火栓",  "住所" : "大聖寺耳聞山町121",  "方書" : "",  "latitude" : "36.3070988",  "longitude" : "136.316199",  "口径" : "100",  "備考" : ""  },
	{  "市区町村コード" : "172065",  "NO" : "000146",  "都道府県名" : "石川県",  "市区町村名" : "加賀市",  "種別" : "消火栓",  "住所" : "大聖寺新町16",  "方書" : "旧 福村陶器店横　　",  "latitude" : "36.3104233",  "longitude" : "136.3130742",  "口径" : "250",  "備考" : ""  },
	{  "市区町村コード" : "172065",  "NO" : "000147",  "都道府県名" : "石川県",  "市区町村名" : "加賀市",  "種別" : "消火栓",  "住所" : "大聖寺相生町16",  "方書" : "",  "latitude" : "36.3107178",  "longitude" : "136.3145435",  "口径" : "100",  "備考" : ""  },
	{  "市区町村コード" : "172065",  "NO" : "000148",  "都道府県名" : "石川県",  "市区町村名" : "加賀市",  "種別" : "消火栓",  "住所" : "大聖寺北片原町26",  "方書" : "花山工務店付近",  "latitude" : "36.3106344",  "longitude" : "136.3114884",  "口径" : "250",  "備考" : ""  },
	{  "市区町村コード" : "172065",  "NO" : "000149",  "都道府県名" : "石川県",  "市区町村名" : "加賀市",  "種別" : "消火栓",  "住所" : "大聖寺北片原町33",  "方書" : "",  "latitude" : "36.3106122",  "longitude" : "136.3119244",  "口径" : "250",  "備考" : ""  },
	{  "市区町村コード" : "172065",  "NO" : "000150",  "都道府県名" : "石川県",  "市区町村名" : "加賀市",  "種別" : "消火栓",  "住所" : "大聖寺番場町18",  "方書" : "馬場電機店付近",  "latitude" : "36.3096736",  "longitude" : "136.3105717",  "口径" : "100",  "備考" : ""  },
	{  "市区町村コード" : "172065",  "NO" : "000151",  "都道府県名" : "石川県",  "市区町村名" : "加賀市",  "種別" : "消火栓",  "住所" : "大聖寺番場町7-1",  "方書" : "加賀市民病院医師住宅付近",  "latitude" : "36.3102788",  "longitude" : "136.3086415",  "口径" : "100",  "備考" : ""  },
	{  "市区町村コード" : "172065",  "NO" : "000152",  "都道府県名" : "石川県",  "市区町村名" : "加賀市",  "種別" : "消火栓",  "住所" : "大聖寺番場町1-1",  "方書" : "みずもとクリーニング",  "latitude" : "36.3106204",  "longitude" : "136.3076638",  "口径" : "350",  "備考" : ""  },
	{  "市区町村コード" : "172065",  "NO" : "000153",  "都道府県名" : "石川県",  "市区町村名" : "加賀市",  "種別" : "消火栓",  "住所" : "大聖寺新組町23-2",  "方書" : "",  "latitude" : "36.3110093",  "longitude" : "136.3085386",  "口径" : "100",  "備考" : ""  },
	{  "市区町村コード" : "172065",  "NO" : "000154",  "都道府県名" : "石川県",  "市区町村名" : "加賀市",  "種別" : "消火栓",  "住所" : "大聖寺殿町15-1",  "方書" : "",  "latitude" : "36.3107427",  "longitude" : "136.3096691",  "口径" : "100",  "備考" : ""  },
	{  "市区町村コード" : "172065",  "NO" : "000155",  "都道府県名" : "石川県",  "市区町村名" : "加賀市",  "種別" : "消火栓",  "住所" : "大聖寺殿町6",  "方書" : "",  "latitude" : "36.3103511",  "longitude" : "136.310083",  "口径" : "100",  "備考" : ""  },
	{  "市区町村コード" : "172065",  "NO" : "000156",  "都道府県名" : "石川県",  "市区町村名" : "加賀市",  "種別" : "消火栓",  "住所" : "大聖寺上福田町ヘ21-4",  "方書" : "宮前橋手前",  "latitude" : "36.3127952",  "longitude" : "136.3063528",  "口径" : "150",  "備考" : ""  },
	{  "市区町村コード" : "172065",  "NO" : "000157",  "都道府県名" : "石川県",  "市区町村名" : "加賀市",  "種別" : "消火栓",  "住所" : "大聖寺上福田町ニ28-3",  "方書" : "",  "latitude" : "36.3120203",  "longitude" : "136.3083193",  "口径" : "100",  "備考" : ""  },
	{  "市区町村コード" : "172065",  "NO" : "000158",  "都道府県名" : "石川県",  "市区町村名" : "加賀市",  "種別" : "消火栓",  "住所" : "大聖寺上福田町ニ20-1",  "方書" : "馬場先造園",  "latitude" : "36.3158672",  "longitude" : "136.3140462",  "口径" : "100",  "備考" : ""  },
	{  "市区町村コード" : "172065",  "NO" : "000159",  "都道府県名" : "石川県",  "市区町村名" : "加賀市",  "種別" : "消火栓",  "住所" : "大聖寺上福田町ホ52",  "方書" : "㈱山海建設付近",  "latitude" : "36.3113204",  "longitude" : "136.3085609",  "口径" : "100",  "備考" : ""  },
	{  "市区町村コード" : "172065",  "NO" : "000160",  "都道府県名" : "石川県",  "市区町村名" : "加賀市",  "種別" : "消火栓",  "住所" : "大聖寺上福田町ホ24",  "方書" : "",  "latitude" : "36.3106065",  "longitude" : "136.3074027",  "口径" : "100",  "備考" : ""  },
	{  "市区町村コード" : "172065",  "NO" : "000161",  "都道府県名" : "石川県",  "市区町村名" : "加賀市",  "種別" : "消火栓",  "住所" : "大聖寺上福田町ホ8",  "方書" : "",  "latitude" : "36.3110371",  "longitude" : "136.3120355",  "口径" : "100",  "備考" : ""  },
	{  "市区町村コード" : "172065",  "NO" : "000162",  "都道府県名" : "石川県",  "市区町村名" : "加賀市",  "種別" : "消火栓",  "住所" : "大聖寺上福田町ニ35",  "方書" : "",  "latitude" : "36.3124425",  "longitude" : "136.3080081",  "口径" : "150",  "備考" : ""  },
	{  "市区町村コード" : "172065",  "NO" : "000163",  "都道府県名" : "石川県",  "市区町村名" : "加賀市",  "種別" : "消火栓",  "住所" : "大聖寺上福田町31",  "方書" : "",  "latitude" : "36.3110095",  "longitude" : "136.3159073",  "口径" : "100",  "備考" : ""  },
	{  "市区町村コード" : "172065",  "NO" : "000164",  "都道府県名" : "石川県",  "市区町村名" : "加賀市",  "種別" : "消火栓",  "住所" : "大聖寺上福田町12",  "方書" : "広場付近",  "latitude" : "36.3114233",  "longitude" : "136.3145213",  "口径" : "100",  "備考" : ""  },
	{  "市区町村コード" : "172065",  "NO" : "000165",  "都道府県名" : "石川県",  "市区町村名" : "加賀市",  "種別" : "消火栓",  "住所" : "大聖寺上福田町ハ1",  "方書" : "",  "latitude" : "36.3113705",  "longitude" : "136.3135381",  "口径" : "150",  "備考" : ""  },
	{  "市区町村コード" : "172065",  "NO" : "000166",  "都道府県名" : "石川県",  "市区町村名" : "加賀市",  "種別" : "消火栓",  "住所" : "大聖寺上福田町ヌ22-4",  "方書" : "旧 宮竹建設付近",  "latitude" : "36.3149062",  "longitude" : "136.3131769",  "口径" : "150",  "備考" : ""  },
	{  "市区町村コード" : "172065",  "NO" : "000167",  "都道府県名" : "石川県",  "市区町村名" : "加賀市",  "種別" : "消火栓",  "住所" : "大聖寺上福田町ヌ57-2",  "方書" : "",  "latitude" : "36.3143173",  "longitude" : "136.312091",  "口径" : "75",  "備考" : ""  },
	{  "市区町村コード" : "172065",  "NO" : "000168",  "都道府県名" : "石川県",  "市区町村名" : "加賀市",  "種別" : "消火栓",  "住所" : "大聖寺上福田町ヌ12-3",  "方書" : "食事処あら川",  "latitude" : "36.3139646",  "longitude" : "136.3134186",  "口径" : "150",  "備考" : ""  },
	{  "市区町村コード" : "172065",  "NO" : "000169",  "都道府県名" : "石川県",  "市区町村名" : "加賀市",  "種別" : "消火栓",  "住所" : "大聖寺上福田町ヌ36-2",  "方書" : "",  "latitude" : "36.3140701",  "longitude" : "136.3127131",  "口径" : "75",  "備考" : ""  },
	{  "市区町村コード" : "172065",  "NO" : "000170",  "都道府県名" : "石川県",  "市区町村名" : "加賀市",  "種別" : "消火栓",  "住所" : "大聖寺上福田町ヌ69",  "方書" : "",  "latitude" : "36.3135452",  "longitude" : "136.3116216",  "口径" : "75",  "備考" : ""  },
	{  "市区町村コード" : "172065",  "NO" : "000171",  "都道府県名" : "石川県",  "市区町村名" : "加賀市",  "種別" : "消火栓",  "住所" : "大聖寺上福田町ヌ56-2",  "方書" : "",  "latitude" : "36.3135396",  "longitude" : "136.312041",  "口径" : "75",  "備考" : ""  },
	{  "市区町村コード" : "172065",  "NO" : "000172",  "都道府県名" : "石川県",  "市区町村名" : "加賀市",  "種別" : "消火栓",  "住所" : "大聖寺上福田町ヌ42-1",  "方書" : "",  "latitude" : "36.3129786",  "longitude" : "136.3124632",  "口径" : "75",  "備考" : ""  },
	{  "市区町村コード" : "172065",  "NO" : "000173",  "都道府県名" : "石川県",  "市区町村名" : "加賀市",  "種別" : "消火栓",  "住所" : "大聖寺上福田町ロ131",  "方書" : "",  "latitude" : "36.3132342",  "longitude" : "136.3148294",  "口径" : "150",  "備考" : ""  },
	{  "市区町村コード" : "172065",  "NO" : "000174",  "都道府県名" : "石川県",  "市区町村名" : "加賀市",  "種別" : "消火栓",  "住所" : "大聖寺上福田町ロ131",  "方書" : "Vドラック大聖寺店",  "latitude" : "36.3132342",  "longitude" : "136.3148294",  "口径" : "150",  "備考" : ""  },
	{  "市区町村コード" : "172065",  "NO" : "000175",  "都道府県名" : "石川県",  "市区町村名" : "加賀市",  "種別" : "消火栓",  "住所" : "大聖寺福の杜",  "方書" : "",  "latitude" : "36.3132342",  "longitude" : "136.3148294",  "口径" : "150",  "備考" : ""  },
	{  "市区町村コード" : "172065",  "NO" : "000176",  "都道府県名" : "石川県",  "市区町村名" : "加賀市",  "種別" : "消火栓",  "住所" : "大聖寺上福田町ハ13",  "方書" : "団地縦路中央部西側",  "latitude" : "36.3117232",  "longitude" : "136.3123688",  "口径" : "100",  "備考" : ""  },
	{  "市区町村コード" : "172065",  "NO" : "000177",  "都道府県名" : "石川県",  "市区町村名" : "加賀市",  "種別" : "消火栓",  "住所" : "大聖寺上福田町ト17",  "方書" : "",  "latitude" : "36.3114675",  "longitude" : "136.3064055",  "口径" : "350",  "備考" : ""  },
	{  "市区町村コード" : "172065",  "NO" : "000178",  "都道府県名" : "石川県",  "市区町村名" : "加賀市",  "種別" : "消火栓",  "住所" : "大聖寺上福田町ト31-2",  "方書" : "",  "latitude" : "36.3119786",  "longitude" : "136.3053363",  "口径" : "150",  "備考" : ""  },
	{  "市区町村コード" : "172065",  "NO" : "000179",  "都道府県名" : "石川県",  "市区町村名" : "加賀市",  "種別" : "消火栓",  "住所" : "大聖寺上福田町ト29",  "方書" : "団地縦路中央部",  "latitude" : "36.3120702",  "longitude" : "136.3051724",  "口径" : "75",  "備考" : ""  },
	{  "市区町村コード" : "172065",  "NO" : "000180",  "都道府県名" : "石川県",  "市区町村名" : "加賀市",  "種別" : "消火栓",  "住所" : "大聖寺菅生タ17",  "方書" : "",  "latitude" : "36.3062601",  "longitude" : "136.3209207",  "口径" : "100",  "備考" : ""  },
	{  "市区町村コード" : "172065",  "NO" : "000181",  "都道府県名" : "石川県",  "市区町村名" : "加賀市",  "種別" : "消火栓",  "住所" : "大聖寺菅生タ15",  "方書" : "久藤病院職員駐車場",  "latitude" : "36.3065101",  "longitude" : "136.3211568",  "口径" : "100",  "備考" : ""  },
	{  "市区町村コード" : "172065",  "NO" : "000182",  "都道府県名" : "石川県",  "市区町村名" : "加賀市",  "種別" : "消火栓",  "住所" : "大聖寺敷地ル乙49",  "方書" : "錦城東小学校前方",  "latitude" : "36.3131566",  "longitude" : "136.3225981",  "口径" : "150",  "備考" : ""  },
	{  "市区町村コード" : "172065",  "NO" : "000183",  "都道府県名" : "石川県",  "市区町村名" : "加賀市",  "種別" : "消火栓",  "住所" : "大聖寺敷地ル甲22",  "方書" : "",  "latitude" : "36.3136121",  "longitude" : "136.3237785",  "口径" : "150",  "備考" : ""  },
	{  "市区町村コード" : "172065",  "NO" : "000184",  "都道府県名" : "石川県",  "市区町村名" : "加賀市",  "種別" : "消火栓",  "住所" : "大聖寺敷地ル甲39-1",  "方書" : "敷地跨線橋下",  "latitude" : "36.3141398",  "longitude" : "136.3243257",  "口径" : "200",  "備考" : ""  },
	{  "市区町村コード" : "172065",  "NO" : "000185",  "都道府県名" : "石川県",  "市区町村名" : "加賀市",  "種別" : "消火栓",  "住所" : "大聖寺敷地ル甲12",  "方書" : "",  "latitude" : "36.3139732",  "longitude" : "136.3249784",  "口径" : "125",  "備考" : ""  },
	{  "市区町村コード" : "172065",  "NO" : "000186",  "都道府県名" : "石川県",  "市区町村名" : "加賀市",  "種別" : "消火栓",  "住所" : "大聖寺敷地ﾜ13",  "方書" : "錦城東小正門横",  "latitude" : "36.3121262",  "longitude" : "136.3230286",  "口径" : "75",  "備考" : ""  },
	{  "市区町村コード" : "172065",  "NO" : "000187",  "都道府県名" : "石川県",  "市区町村名" : "加賀市",  "種別" : "消火栓",  "住所" : "大聖寺敷地ヘ62",  "方書" : "",  "latitude" : "36.3170369",  "longitude" : "136.3308861",  "口径" : "100",  "備考" : ""  },
	{  "市区町村コード" : "172065",  "NO" : "000188",  "都道府県名" : "石川県",  "市区町村名" : "加賀市",  "種別" : "消火栓",  "住所" : "大聖寺敷地ト42-7",  "方書" : "",  "latitude" : "36.3149704",  "longitude" : "136.3266504",  "口径" : "150",  "備考" : ""  },
	{  "市区町村コード" : "172065",  "NO" : "000189",  "都道府県名" : "石川県",  "市区町村名" : "加賀市",  "種別" : "消火栓",  "住所" : "大聖寺敷地ト39-4",  "方書" : "",  "latitude" : "36.3150704",  "longitude" : "136.3271505",  "口径" : "100",  "備考" : ""  },
	{  "市区町村コード" : "172065",  "NO" : "000190",  "都道府県名" : "石川県",  "市区町村名" : "加賀市",  "種別" : "消火栓",  "住所" : "大聖寺敷地ト31-3",  "方書" : "",  "latitude" : "36.315437",  "longitude" : "136.327431",  "口径" : "100",  "備考" : ""  },
	{  "市区町村コード" : "172065",  "NO" : "000191",  "都道府県名" : "石川県",  "市区町村名" : "加賀市",  "種別" : "消火栓",  "住所" : "大聖寺敷地ト26-2",  "方書" : "東敷地町公民館",  "latitude" : "36.3152232",  "longitude" : "136.327903",  "口径" : "75",  "備考" : ""  },
	{  "市区町村コード" : "172065",  "NO" : "000192",  "都道府県名" : "石川県",  "市区町村名" : "加賀市",  "種別" : "消火栓",  "住所" : "大聖寺敷地ト20-5",  "方書" : "JR線沿い",  "latitude" : "36.3154065",  "longitude" : "136.3287142",  "口径" : "100",  "備考" : ""  },
	{  "市区町村コード" : "172065",  "NO" : "000193",  "都道府県名" : "石川県",  "市区町村名" : "加賀市",  "種別" : "消火栓",  "住所" : "大聖寺敷地ト17-1",  "方書" : "",  "latitude" : "36.3156898",  "longitude" : "136.3286419",  "口径" : "100",  "備考" : ""  },
	{  "市区町村コード" : "172065",  "NO" : "000194",  "都道府県名" : "石川県",  "市区町村名" : "加賀市",  "種別" : "消火栓",  "住所" : "大聖寺敷地ヌ1-6",  "方書" : "春日簡易郵便局",  "latitude" : "36.3159807",  "longitude" : "136.3270319",  "口径" : "75",  "備考" : ""  },
	{  "市区町村コード" : "172065",  "NO" : "000195",  "都道府県名" : "石川県",  "市区町村名" : "加賀市",  "種別" : "消火栓",  "住所" : "大聖寺敷地ヌ1-20",  "方書" : "",  "latitude" : "36.3161119",  "longitude" : "136.3268421",  "口径" : "125",  "備考" : ""  },
	{  "市区町村コード" : "172065",  "NO" : "000196",  "都道府県名" : "石川県",  "市区町村名" : "加賀市",  "種別" : "消火栓",  "住所" : "大聖寺敷地ヌ1-46",  "方書" : "古本商店付近",  "latitude" : "36.3166202",  "longitude" : "136.3275836",  "口径" : "100",  "備考" : ""  },
	{  "市区町村コード" : "172065",  "NO" : "000197",  "都道府県名" : "石川県",  "市区町村名" : "加賀市",  "種別" : "消火栓",  "住所" : "大聖寺敷地ヌ1-1",  "方書" : "市営敷地団地17号室付近",  "latitude" : "36.3167479",  "longitude" : "136.3271476",  "口径" : "75",  "備考" : ""  },
	{  "市区町村コード" : "172065",  "NO" : "000198",  "都道府県名" : "石川県",  "市区町村名" : "加賀市",  "種別" : "消火栓",  "住所" : "大聖寺敷地リ195-5",  "方書" : "春日町バス停向い",  "latitude" : "36.3164369",  "longitude" : "136.3283725",  "口径" : "100",  "備考" : ""  },
	{  "市区町村コード" : "172065",  "NO" : "000199",  "都道府県名" : "石川県",  "市区町村名" : "加賀市",  "種別" : "消火栓",  "住所" : "大聖寺敷地リ1-25",  "方書" : "",  "latitude" : "36.316698",  "longitude" : "136.3287723",  "口径" : "100",  "備考" : ""  },
	{  "市区町村コード" : "172065",  "NO" : "000200",  "都道府県名" : "石川県",  "市区町村名" : "加賀市",  "種別" : "消火栓",  "住所" : "大聖寺敷地リ1-14",  "方書" : "山野下昭夫宅裏",  "latitude" : "36.3169563",  "longitude" : "136.329114",  "口径" : "100",  "備考" : ""  },
	{  "市区町村コード" : "172065",  "NO" : "000201",  "都道府県名" : "石川県",  "市区町村名" : "加賀市",  "種別" : "消火栓",  "住所" : "大聖寺敷地リ1-39",  "方書" : "",  "latitude" : "36.3168425",  "longitude" : "136.3295529",  "口径" : "100",  "備考" : ""  },
	{  "市区町村コード" : "172065",  "NO" : "000202",  "都道府県名" : "石川県",  "市区町村名" : "加賀市",  "種別" : "消火栓",  "住所" : "大聖寺敷地ヌ1-1",  "方書" : "敷地団地集会場西方",  "latitude" : "36.3167479",  "longitude" : "136.3271476",  "口径" : "75",  "備考" : ""  },
	{  "市区町村コード" : "172065",  "NO" : "000203",  "都道府県名" : "石川県",  "市区町村名" : "加賀市",  "種別" : "消火栓",  "住所" : "大聖寺敷地ヌ1-1",  "方書" : "団地縦路中央部",  "latitude" : "36.3167479",  "longitude" : "136.3271476",  "口径" : "100",  "備考" : ""  },
	{  "市区町村コード" : "172065",  "NO" : "000204",  "都道府県名" : "石川県",  "市区町村名" : "加賀市",  "種別" : "消火栓",  "住所" : "大聖寺上福田町四人山33-4",  "方書" : "",  "latitude" : "36.3228998",  "longitude" : "136.3198592",  "口径" : "300",  "備考" : ""  },
	{  "市区町村コード" : "172065",  "NO" : "000205",  "都道府県名" : "石川県",  "市区町村名" : "加賀市",  "種別" : "消火栓",  "住所" : "大聖寺敷地ソ甲2-2",  "方書" : "",  "latitude" : "36.3227526",  "longitude" : "136.3216396",  "口径" : "300",  "備考" : ""  },
	{  "市区町村コード" : "172065",  "NO" : "000206",  "都道府県名" : "石川県",  "市区町村名" : "加賀市",  "種別" : "消火栓",  "住所" : "大聖寺敷地伊238",  "方書" : "平床町公民館付近",  "latitude" : "36.3222472",  "longitude" : "136.3239893",  "口径" : "300",  "備考" : ""  },
	{  "市区町村コード" : "172065",  "NO" : "000207",  "都道府県名" : "石川県",  "市区町村名" : "加賀市",  "種別" : "消火栓",  "住所" : "大聖寺敷地伊286",  "方書" : "",  "latitude" : "36.3222472",  "longitude" : "136.3239893",  "口径" : "100",  "備考" : ""  },
	{  "市区町村コード" : "172065",  "NO" : "000208",  "都道府県名" : "石川県",  "市区町村名" : "加賀市",  "種別" : "消火栓",  "住所" : "大聖寺敷地伊22-2",  "方書" : "",  "latitude" : "36.3222472",  "longitude" : "136.3239893",  "口径" : "250",  "備考" : ""  },
	{  "市区町村コード" : "172065",  "NO" : "000209",  "都道府県名" : "石川県",  "市区町村名" : "加賀市",  "種別" : "消火栓",  "住所" : "大聖寺敷地16-66",  "方書" : "",  "latitude" : "36.3228944",  "longitude" : "136.3259947",  "口径" : "300",  "備考" : ""  },
	{  "市区町村コード" : "172065",  "NO" : "000210",  "都道府県名" : "石川県",  "市区町村名" : "加賀市",  "種別" : "消火栓",  "住所" : "大聖寺敷地伊45",  "方書" : "市営球場裏進入路",  "latitude" : "36.3262885",  "longitude" : "136.3269194",  "口径" : "250",  "備考" : ""  },
	{  "市区町村コード" : "172065",  "NO" : "000211",  "都道府県名" : "石川県",  "市区町村名" : "加賀市",  "種別" : "消火栓",  "住所" : "大聖寺岡町ホ7-1",  "方書" : "岡町交差点",  "latitude" : "36.3136731",  "longitude" : "136.3170654",  "口径" : "150",  "備考" : ""  },
	{  "市区町村コード" : "172065",  "NO" : "000212",  "都道府県名" : "石川県",  "市区町村名" : "加賀市",  "種別" : "消火栓",  "住所" : "大聖寺岡町ニ20-2",  "方書" : "ギフトのコトブキ屋",  "latitude" : "36.3121933",  "longitude" : "136.3171402",  "口径" : "150",  "備考" : ""  },
	{  "市区町村コード" : "172065",  "NO" : "000213",  "都道府県名" : "石川県",  "市区町村名" : "加賀市",  "種別" : "消火栓",  "住所" : "大聖寺岡町ロ47-4",  "方書" : "赤坂建具作業所",  "latitude" : "36.3122677",  "longitude" : "136.3185708",  "口径" : "75",  "備考" : ""  },
	{  "市区町村コード" : "172065",  "NO" : "000214",  "都道府県名" : "石川県",  "市区町村名" : "加賀市",  "種別" : "消火栓",  "住所" : "大聖寺岡町ロ22",  "方書" : "",  "latitude" : "36.312926",  "longitude" : "136.3195955",  "口径" : "100",  "備考" : ""  },
	{  "市区町村コード" : "172065",  "NO" : "000215",  "都道府県名" : "石川県",  "市区町村名" : "加賀市",  "種別" : "消火栓",  "住所" : "大聖寺岡町イ18",  "方書" : "愛宕橋付近",  "latitude" : "36.3120344",  "longitude" : "136.3188485",  "口径" : "150",  "備考" : ""  },
	{  "市区町村コード" : "172065",  "NO" : "000216",  "都道府県名" : "石川県",  "市区町村名" : "加賀市",  "種別" : "消火栓",  "住所" : "大聖寺岡町イ",  "方書" : "幼稚園入口坂",  "latitude" : "36.312251",  "longitude" : "136.3192568",  "口径" : "75",  "備考" : ""  },
	{  "市区町村コード" : "172065",  "NO" : "000217",  "都道府県名" : "石川県",  "市区町村名" : "加賀市",  "種別" : "消火栓",  "住所" : "大聖寺畑町ニ甲92",  "方書" : "畑町交差点下",  "latitude" : "36.3172948",  "longitude" : "136.3139434",  "口径" : "75",  "備考" : ""  },
	{  "市区町村コード" : "172065",  "NO" : "000218",  "都道府県名" : "石川県",  "市区町村名" : "加賀市",  "種別" : "消火栓",  "住所" : "大聖寺畑町は10",  "方書" : "",  "latitude" : "36.3167698",  "longitude" : "136.3108855",  "口径" : "150",  "備考" : ""  },
	{  "市区町村コード" : "172065",  "NO" : "000219",  "都道府県名" : "石川県",  "市区町村名" : "加賀市",  "種別" : "消火栓",  "住所" : "大聖寺畑町イ10",  "方書" : "畑町集会場付近",  "latitude" : "36.3172447",  "longitude" : "136.3100328",  "口径" : "100",  "備考" : ""  },
	{  "市区町村コード" : "172065",  "NO" : "000220",  "都道府県名" : "石川県",  "市区町村名" : "加賀市",  "種別" : "消火栓",  "住所" : "大聖寺畑町ろ8-1",  "方書" : "大聖寺川浄化センター",  "latitude" : "36.3168347",  "longitude" : "136.3069811",  "口径" : "75",  "備考" : ""  },
	{  "市区町村コード" : "172065",  "NO" : "000221",  "都道府県名" : "石川県",  "市区町村名" : "加賀市",  "種別" : "消火栓",  "住所" : "大聖寺上福田町ソ117-2",  "方書" : "㈱加南土木資材置場",  "latitude" : "36.323037",  "longitude" : "136.316564",  "口径" : "300",  "備考" : ""  },
	{  "市区町村コード" : "172065",  "NO" : "000222",  "都道府県名" : "石川県",  "市区町村名" : "加賀市",  "種別" : "消火栓",  "住所" : "大聖寺上福田町カ146-1",  "方書" : "",  "latitude" : "36.3219499",  "longitude" : "136.3154959",  "口径" : "150",  "備考" : ""  },
	{  "市区町村コード" : "172065",  "NO" : "000223",  "都道府県名" : "石川県",  "市区町村名" : "加賀市",  "種別" : "消火栓",  "住所" : "大聖寺上福田町カ121",  "方書" : "",  "latitude" : "36.3213971",  "longitude" : "136.3148571",  "口径" : "100",  "備考" : ""  },
	{  "市区町村コード" : "172065",  "NO" : "000224",  "都道府県名" : "石川県",  "市区町村名" : "加賀市",  "種別" : "消火栓",  "住所" : "大聖寺下福田町8-57-2",  "方書" : "",  "latitude" : "36.3136783",  "longitude" : "136.3021922",  "口径" : "100",  "備考" : ""  },
	{  "市区町村コード" : "172065",  "NO" : "000225",  "都道府県名" : "石川県",  "市区町村名" : "加賀市",  "種別" : "消火栓",  "住所" : "大聖寺下福田町8-93",  "方書" : "旧道三叉路付近",  "latitude" : "36.3140921",  "longitude" : "136.3008479",  "口径" : "100",  "備考" : ""  },
	{  "市区町村コード" : "172065",  "NO" : "000226",  "都道府県名" : "石川県",  "市区町村名" : "加賀市",  "種別" : "消火栓",  "住所" : "大聖寺下福田町8-119",  "方書" : "",  "latitude" : "36.3137949",  "longitude" : "136.2999563",  "口径" : "100",  "備考" : ""  },
	{  "市区町村コード" : "172065",  "NO" : "000227",  "都道府県名" : "石川県",  "市区町村名" : "加賀市",  "種別" : "消火栓",  "住所" : "大聖寺下福田町8-106",  "方書" : "下福田町八幡神社付近",  "latitude" : "36.3136783",  "longitude" : "136.3021922",  "口径" : "100",  "備考" : ""  },
	{  "市区町村コード" : "172065",  "NO" : "000228",  "都道府県名" : "石川県",  "市区町村名" : "加賀市",  "種別" : "消火栓",  "住所" : "大聖寺下福田町8-76",  "方書" : "",  "latitude" : "36.3134866",  "longitude" : "136.3013477",  "口径" : "75",  "備考" : ""  },
	{  "市区町村コード" : "172065",  "NO" : "000229",  "都道府県名" : "石川県",  "市区町村名" : "加賀市",  "種別" : "消火栓",  "住所" : "大聖寺下福田町3-8",  "方書" : "㈲川畑板金店付近",  "latitude" : "36.3131117",  "longitude" : "136.3008285",  "口径" : "75",  "備考" : ""  },
	{  "市区町村コード" : "172065",  "NO" : "000230",  "都道府県名" : "石川県",  "市区町村名" : "加賀市",  "種別" : "消火栓",  "住所" : "大聖寺下福田町12-31",  "方書" : "",  "latitude" : "36.3165613",  "longitude" : "136.3017449",  "口径" : "75",  "備考" : ""  },
	{  "市区町村コード" : "172065",  "NO" : "000231",  "都道府県名" : "石川県",  "市区町村名" : "加賀市",  "種別" : "消火栓",  "住所" : "大聖寺下福田町12-58",  "方書" : "",  "latitude" : "36.3166196",  "longitude" : "136.3000978",  "口径" : "75",  "備考" : ""  },
	{  "市区町村コード" : "172065",  "NO" : "000232",  "都道府県名" : "石川県",  "市区町村名" : "加賀市",  "種別" : "消火栓",  "住所" : "大聖寺下福田町17-4",  "方書" : "",  "latitude" : "36.312867",  "longitude" : "136.2906075",  "口径" : "100",  "備考" : ""  },
	{  "市区町村コード" : "172065",  "NO" : "000233",  "都道府県名" : "石川県",  "市区町村名" : "加賀市",  "種別" : "消火栓",  "住所" : "大聖寺下福田町ト38",  "方書" : "",  "latitude" : "36.3120421",  "longitude" : "136.2898937",  "口径" : "100",  "備考" : ""  },
	{  "市区町村コード" : "172065",  "NO" : "000234",  "都道府県名" : "石川県",  "市区町村名" : "加賀市",  "種別" : "消火栓",  "住所" : "大聖寺下福田町17-38",  "方書" : "",  "latitude" : "36.3105478",  "longitude" : "136.2893771",  "口径" : "200",  "備考" : ""  },
	{  "市区町村コード" : "172065",  "NO" : "000235",  "都道府県名" : "石川県",  "市区町村名" : "加賀市",  "種別" : "消火栓",  "住所" : "大聖寺下福田町レ28",  "方書" : "犬ノ沢八幡神社付近",  "latitude" : "36.3093395",  "longitude" : "136.2887495",  "口径" : "200",  "備考" : ""  },
	{  "市区町村コード" : "172065",  "NO" : "000236",  "都道府県名" : "石川県",  "市区町村名" : "加賀市",  "種別" : "消火栓",  "住所" : "大聖寺下福田町レ10",  "方書" : "大同工業㈱福田工場",  "latitude" : "36.3093395",  "longitude" : "136.2887495",  "口径" : "200",  "備考" : ""  },
	{  "市区町村コード" : "172065",  "NO" : "000237",  "都道府県名" : "石川県",  "市区町村名" : "加賀市",  "種別" : "消火栓",  "住所" : "大聖寺下福田町",  "方書" : "",  "latitude" : "36.3138227",  "longitude" : "136.3004229",  "口径" : "200",  "備考" : ""  },
	{  "市区町村コード" : "172065",  "NO" : "000238",  "都道府県名" : "石川県",  "市区町村名" : "加賀市",  "種別" : "消火栓",  "住所" : "大聖寺荻生町5-24",  "方書" : "",  "latitude" : "36.3090843",  "longitude" : "136.2996648",  "口径" : "75",  "備考" : ""  },
	{  "市区町村コード" : "172065",  "NO" : "000239",  "都道府県名" : "石川県",  "市区町村名" : "加賀市",  "種別" : "消火栓",  "住所" : "大聖寺荻生町5-6",  "方書" : "",  "latitude" : "36.309437",  "longitude" : "136.2987371",  "口径" : "75",  "備考" : ""  },
	{  "市区町村コード" : "172065",  "NO" : "000240",  "都道府県名" : "石川県",  "市区町村名" : "加賀市",  "種別" : "消火栓",  "住所" : "大聖寺三ツ町チ1-1",  "方書" : "",  "latitude" : "36.3019237",  "longitude" : "136.2916827",  "口径" : "150",  "備考" : ""  },
	{  "市区町村コード" : "172065",  "NO" : "000241",  "都道府県名" : "石川県",  "市区町村名" : "加賀市",  "種別" : "消火栓",  "住所" : "大聖寺三ツ町ヨ30",  "方書" : "三ツ町民会館付近",  "latitude" : "36.3019708",  "longitude" : "136.2904023",  "口径" : "150",  "備考" : ""  },
	{  "市区町村コード" : "172065",  "NO" : "000242",  "都道府県名" : "石川県",  "市区町村名" : "加賀市",  "種別" : "消火栓",  "住所" : "大聖寺三ツ町ヨ39",  "方書" : "聖南エレテック裏",  "latitude" : "36.3022402",  "longitude" : "136.2888997",  "口径" : "150",  "備考" : ""  },
	{  "市区町村コード" : "172065",  "NO" : "000243",  "都道府県名" : "石川県",  "市区町村名" : "加賀市",  "種別" : "消火栓",  "住所" : "大聖寺三ツ町ヨ8",  "方書" : "発願寺",  "latitude" : "36.303129",  "longitude" : "136.2873692",  "口径" : "150",  "備考" : ""  },
	{  "市区町村コード" : "172065",  "NO" : "000244",  "都道府県名" : "石川県",  "市区町村名" : "加賀市",  "種別" : "消火栓",  "住所" : "大聖寺三ツ町錦城ヶ丘1-2",  "方書" : "酒のひろい",  "latitude" : "36.3017016",  "longitude" : "136.2946184",  "口径" : "100",  "備考" : ""  },
	{  "市区町村コード" : "172065",  "NO" : "000245",  "都道府県名" : "石川県",  "市区町村名" : "加賀市",  "種別" : "消火栓",  "住所" : "大聖寺三ツ町錦城ヶ丘50-4",  "方書" : "英進オート",  "latitude" : "36.3023265",  "longitude" : "136.2950796",  "口径" : "100",  "備考" : ""  },
	{  "市区町村コード" : "172065",  "NO" : "000246",  "都道府県名" : "石川県",  "市区町村名" : "加賀市",  "種別" : "消火栓",  "住所" : "大聖寺三ツ町錦城ヶ丘8-10",  "方書" : "中川建築作業場",  "latitude" : "36.3029014",  "longitude" : "136.2948461",  "口径" : "100",  "備考" : ""  },
	{  "市区町村コード" : "172065",  "NO" : "000247",  "都道府県名" : "石川県",  "市区町村名" : "加賀市",  "種別" : "消火栓",  "住所" : "大聖寺三ツ町チ85-15",  "方書" : "大谷一生",  "latitude" : "36.3032069",  "longitude" : "136.2943601",  "口径" : "150",  "備考" : ""  },
	{  "市区町村コード" : "172065",  "NO" : "000248",  "都道府県名" : "石川県",  "市区町村名" : "加賀市",  "種別" : "消火栓",  "住所" : "大聖寺三ツ町錦城ヶ丘41-6",  "方書" : "",  "latitude" : "36.3031681",  "longitude" : "136.2955266",  "口径" : "100",  "備考" : ""  },
	{  "市区町村コード" : "172065",  "NO" : "000249",  "都道府県名" : "石川県",  "市区町村名" : "加賀市",  "種別" : "消火栓",  "住所" : "大聖寺三ツ町錦城ヶ丘13-11",  "方書" : "酒のひろい倉庫付近",  "latitude" : "36.3032236",  "longitude" : "136.2953072",  "口径" : "100",  "備考" : ""  },
	{  "市区町村コード" : "172065",  "NO" : "000250",  "都道府県名" : "石川県",  "市区町村名" : "加賀市",  "種別" : "消火栓",  "住所" : "大聖寺三ツ町リ19-8",  "方書" : "",  "latitude" : "36.3044652",  "longitude" : "136.2952322",  "口径" : "150",  "備考" : ""  },
	{  "市区町村コード" : "172065",  "NO" : "000251",  "都道府県名" : "石川県",  "市区町村名" : "加賀市",  "種別" : "消火栓",  "住所" : "大聖寺三ツ町錦城ヶ丘125",  "方書" : "",  "latitude" : "36.3050485",  "longitude" : "136.2961293",  "口径" : "100",  "備考" : ""  },
	{  "市区町村コード" : "172065",  "NO" : "000252",  "都道府県名" : "石川県",  "市区町村名" : "加賀市",  "種別" : "消火栓",  "住所" : "大聖寺三ツ町錦城ヶ丘150-1",  "方書" : "",  "latitude" : "36.305179",  "longitude" : "136.2956239",  "口径" : "75",  "備考" : ""  },
	{  "市区町村コード" : "172065",  "NO" : "000253",  "都道府県名" : "石川県",  "市区町村名" : "加賀市",  "種別" : "消火栓",  "住所" : "大聖寺三ツ町錦城ヶ丘191",  "方書" : "たこ焼き さっちゃん",  "latitude" : "36.3057789",  "longitude" : "136.295246",  "口径" : "150",  "備考" : ""  },
	{  "市区町村コード" : "172065",  "NO" : "000254",  "都道府県名" : "石川県",  "市区町村名" : "加賀市",  "種別" : "消火栓",  "住所" : "大聖寺三ツ町錦城ヶ丘130-13",  "方書" : "",  "latitude" : "36.3061761",  "longitude" : "136.2958598",  "口径" : "75",  "備考" : ""  },
	{  "市区町村コード" : "172065",  "NO" : "000255",  "都道府県名" : "石川県",  "市区町村名" : "加賀市",  "種別" : "消火栓",  "住所" : "大聖寺上木町23（本村）",  "方書" : "県道三叉路付近",  "latitude" : "36.29766",  "longitude" : "136.268999",  "口径" : "200",  "備考" : ""  },
	{  "市区町村コード" : "172065",  "NO" : "000256",  "都道府県名" : "石川県",  "市区町村名" : "加賀市",  "種別" : "消火栓",  "住所" : "大聖寺上木町ハ14（本村）",  "方書" : "",  "latitude" : "36.3053566",  "longitude" : "136.2805059",  "口径" : "75",  "備考" : ""  },
	{  "市区町村コード" : "172065",  "NO" : "000257",  "都道府県名" : "石川県",  "市区町村名" : "加賀市",  "種別" : "消火栓",  "住所" : "大聖寺上木町本村41（本村）",  "方書" : "",  "latitude" : "36.3051288",  "longitude" : "136.2785477",  "口径" : "75",  "備考" : ""  },
	{  "市区町村コード" : "172065",  "NO" : "000258",  "都道府県名" : "石川県",  "市区町村名" : "加賀市",  "種別" : "消火栓",  "住所" : "大聖寺上木町ホ69（本村）",  "方書" : "㈲出孝自動車",  "latitude" : "36.3040977",  "longitude" : "136.2781707",  "口径" : "200",  "備考" : ""  },
	{  "市区町村コード" : "172065",  "NO" : "000259",  "都道府県名" : "石川県",  "市区町村名" : "加賀市",  "種別" : "消火栓",  "住所" : "大聖寺上木町ヘ2-3（本村）",  "方書" : "",  "latitude" : "36.3035678",  "longitude" : "136.2772729",  "口径" : "200",  "備考" : ""  },
	{  "市区町村コード" : "172065",  "NO" : "000260",  "都道府県名" : "石川県",  "市区町村名" : "加賀市",  "種別" : "消火栓",  "住所" : "大聖寺上木町ヘ1-10（本村）",  "方書" : "公園付近",  "latitude" : "36.3036678",  "longitude" : "136.276284",  "口径" : "75",  "備考" : ""  },
	{  "市区町村コード" : "172065",  "NO" : "000261",  "都道府県名" : "石川県",  "市区町村名" : "加賀市",  "種別" : "消火栓",  "住所" : "大聖寺上木町ヘ46-13（本村）",  "方書" : "",  "latitude" : "36.3034067",  "longitude" : "136.276498",  "口径" : "75",  "備考" : ""  },
	{  "市区町村コード" : "172065",  "NO" : "000262",  "都道府県名" : "石川県",  "市区町村名" : "加賀市",  "種別" : "消火栓",  "住所" : "大聖寺上木町ヘ46-3（本村）",  "方書" : "",  "latitude" : "36.3031568",  "longitude" : "136.2762397",  "口径" : "200",  "備考" : ""  },
	{  "市区町村コード" : "172065",  "NO" : "000263",  "都道府県名" : "石川県",  "市区町村名" : "加賀市",  "種別" : "消火栓",  "住所" : "三木町ヌ93",  "方書" : "上木町交差点",  "latitude" : "36.3008737",  "longitude" : "136.274626",  "口径" : "200",  "備考" : ""  },
	{  "市区町村コード" : "172065",  "NO" : "000264",  "都道府県名" : "石川県",  "市区町村名" : "加賀市",  "種別" : "消火栓",  "住所" : "大聖寺上木町ト18（出村）",  "方書" : "",  "latitude" : "36.3006737",  "longitude" : "136.2740288",  "口径" : "200",  "備考" : ""  },
	{  "市区町村コード" : "172065",  "NO" : "000265",  "都道府県名" : "石川県",  "市区町村名" : "加賀市",  "種別" : "消火栓",  "住所" : "大聖寺上木町70",  "方書" : "牧野コンクリート",  "latitude" : "36.3001127",  "longitude" : "136.2736705",  "口径" : "200",  "備考" : ""  },
	{  "市区町村コード" : "172065",  "NO" : "000266",  "都道府県名" : "石川県",  "市区町村名" : "加賀市",  "種別" : "消火栓",  "住所" : "大聖寺上木町出村",  "方書" : "",  "latitude" : "36.2999877",  "longitude" : "136.272329",  "口径" : "75",  "備考" : ""  },
	{  "市区町村コード" : "172065",  "NO" : "000267",  "都道府県名" : "石川県",  "市区町村名" : "加賀市",  "種別" : "消火栓",  "住所" : "大聖寺上木町157-1",  "方書" : "和束運輸㈱加賀営業所",  "latitude" : "36.2991461",  "longitude" : "136.2724735",  "口径" : "200",  "備考" : ""  },
	{  "市区町村コード" : "172065",  "NO" : "000268",  "都道府県名" : "石川県",  "市区町村名" : "加賀市",  "種別" : "消火栓",  "住所" : "大聖寺上木町ソ5-2",  "方書" : "",  "latitude" : "36.2981046",  "longitude" : "136.2694682",  "口径" : "200",  "備考" : ""  },
	{  "市区町村コード" : "172065",  "NO" : "000269",  "都道府県名" : "石川県",  "市区町村名" : "加賀市",  "種別" : "消火栓",  "住所" : "大聖寺上木町開墾地83",  "方書" : "",  "latitude" : "36.2969908",  "longitude" : "136.2686905",  "口径" : "200",  "備考" : ""  },
	{  "市区町村コード" : "172065",  "NO" : "000270",  "都道府県名" : "石川県",  "市区町村名" : "加賀市",  "種別" : "消火栓",  "住所" : "大聖寺上木町ロ４９(本村)",  "方書" : "ナイテックプレシジョン",  "latitude" : "36.304465",  "longitude" : "136.2844944",  "口径" : "200",  "備考" : ""  },
	{  "市区町村コード" : "172065",  "NO" : "000271",  "都道府県名" : "石川県",  "市区町村名" : "加賀市",  "種別" : "消火栓",  "住所" : "大聖寺瀬越町25-10-1",  "方書" : "サーブルカフェ",  "latitude" : "36.2963131",  "longitude" : "136.2670435",  "口径" : "200",  "備考" : ""  },
	{  "市区町村コード" : "172065",  "NO" : "000272",  "都道府県名" : "石川県",  "市区町村名" : "加賀市",  "種別" : "消火栓",  "住所" : "大聖寺瀬越町イ19-1",  "方書" : "竹の浦館",  "latitude" : "36.2958798",  "longitude" : "136.2644854",  "口径" : "200",  "備考" : ""  },
	{  "市区町村コード" : "172065",  "NO" : "000273",  "都道府県名" : "石川県",  "市区町村名" : "加賀市",  "種別" : "消火栓",  "住所" : "大聖寺瀬越町イ21-1",  "方書" : "竹の浦館裏",  "latitude" : "36.2965881",  "longitude" : "136.2658797",  "口径" : "75",  "備考" : ""  },
	{  "市区町村コード" : "172065",  "NO" : "000274",  "都道府県名" : "石川県",  "市区町村名" : "加賀市",  "種別" : "消火栓",  "住所" : "大聖寺瀬越町23-257甲",  "方書" : "片野和雄宅付近",  "latitude" : "36.2953271",  "longitude" : "136.2639604",  "口径" : "75",  "備考" : ""  },
	{  "市区町村コード" : "172065",  "NO" : "000275",  "都道府県名" : "石川県",  "市区町村名" : "加賀市",  "種別" : "消火栓",  "住所" : "大聖寺瀬越町23-34",  "方書" : "",  "latitude" : "36.2964576",  "longitude" : "136.2635021",  "口径" : "200",  "備考" : ""  },
	{  "市区町村コード" : "172065",  "NO" : "000276",  "都道府県名" : "石川県",  "市区町村名" : "加賀市",  "種別" : "消火栓",  "住所" : "大聖寺瀬越町23-153",  "方書" : "",  "latitude" : "36.2956215",  "longitude" : "136.2629466",  "口径" : "75",  "備考" : ""  },
	{  "市区町村コード" : "172065",  "NO" : "000277",  "都道府県名" : "石川県",  "市区町村名" : "加賀市",  "種別" : "消火栓",  "住所" : "大聖寺瀬越町23-248",  "方書" : "徳音寺西方角",  "latitude" : "36.2959354",  "longitude" : "136.2625161",  "口径" : "100",  "備考" : ""  },
	{  "市区町村コード" : "172065",  "NO" : "000278",  "都道府県名" : "石川県",  "市区町村名" : "加賀市",  "種別" : "消火栓",  "住所" : "大聖寺瀬越町23-56",  "方書" : "沢田龍一宅付近",  "latitude" : "36.295516",  "longitude" : "136.2628828",  "口径" : "200",  "備考" : ""  },
	{  "市区町村コード" : "172065",  "NO" : "000279",  "都道府県名" : "石川県",  "市区町村名" : "加賀市",  "種別" : "消火栓",  "住所" : "大聖寺瀬越町23-138",  "方書" : "板谷恵治宅裏",  "latitude" : "36.2952244",  "longitude" : "136.2615773",  "口径" : "75",  "備考" : ""  },
	{  "市区町村コード" : "172065",  "NO" : "000280",  "都道府県名" : "石川県",  "市区町村名" : "加賀市",  "種別" : "消火栓",  "住所" : "大聖寺瀬越町23-176",  "方書" : "渡辺勝義宅付近",  "latitude" : "36.295591",  "longitude" : "136.2611774",  "口径" : "75",  "備考" : ""  },
	{  "市区町村コード" : "172065",  "NO" : "000281",  "都道府県名" : "石川県",  "市区町村名" : "加賀市",  "種別" : "消火栓",  "住所" : "大聖寺瀬越町23-77",  "方書" : "瀬越橋下川沿い",  "latitude" : "36.2951772",  "longitude" : "136.2603913",  "口径" : "200",  "備考" : ""  },
	{  "市区町村コード" : "172065",  "NO" : "000282",  "都道府県名" : "石川県",  "市区町村名" : "加賀市",  "種別" : "消火栓",  "住所" : "大聖寺瀬越町23-120",  "方書" : "",  "latitude" : "36.2954382",  "longitude" : "136.2604663",  "口径" : "75",  "備考" : ""  },
	{  "市区町村コード" : "172065",  "NO" : "000283",  "都道府県名" : "石川県",  "市区町村名" : "加賀市",  "種別" : "消火栓",  "住所" : "大聖寺瀬越町23-98",  "方書" : "瀬越町白山神社付近",  "latitude" : "36.2949466",  "longitude" : "136.2587748",  "口径" : "200",  "備考" : ""  },
	{  "市区町村コード" : "172065",  "NO" : "000284",  "都道府県名" : "石川県",  "市区町村名" : "加賀市",  "種別" : "消火栓",  "住所" : "大聖寺瀬越町塩屋境山1-1",  "方書" : "緑が丘小学校入口",  "latitude" : "36.2950883",  "longitude" : "136.2556612",  "口径" : "200",  "備考" : ""  },
	{  "市区町村コード" : "172065",  "NO" : "000285",  "都道府県名" : "石川県",  "市区町村名" : "加賀市",  "種別" : "消火栓",  "住所" : "大聖寺東町1丁目1",  "方書" : "大聖寺警察署",  "latitude" : "36.3042742",  "longitude" : "136.3176795",  "口径" : "300",  "備考" : ""  },
	{  "市区町村コード" : "172065",  "NO" : "000286",  "都道府県名" : "石川県",  "市区町村名" : "加賀市",  "種別" : "消火栓",  "住所" : "大聖寺東町1丁目19",  "方書" : "",  "latitude" : "36.3051796",  "longitude" : "136.3174516",  "口径" : "100",  "備考" : ""  },
	{  "市区町村コード" : "172065",  "NO" : "000287",  "都道府県名" : "石川県",  "市区町村名" : "加賀市",  "種別" : "消火栓",  "住所" : "大聖寺東町1丁目5",  "方書" : "加賀郵便局裏",  "latitude" : "36.3046686",  "longitude" : "136.3182211",  "口径" : "100",  "備考" : ""  },
	{  "市区町村コード" : "172065",  "NO" : "000288",  "都道府県名" : "石川県",  "市区町村名" : "加賀市",  "種別" : "消火栓",  "住所" : "大聖寺東町1丁目9",  "方書" : "",  "latitude" : "36.3047964",  "longitude" : "136.3186626",  "口径" : "300",  "備考" : ""  },
	{  "市区町村コード" : "172065",  "NO" : "000289",  "都道府県名" : "石川県",  "市区町村名" : "加賀市",  "種別" : "消火栓",  "住所" : "大聖寺東町1丁目25",  "方書" : "アライエ合繊",  "latitude" : "36.3053268",  "longitude" : "136.3179405",  "口径" : "150",  "備考" : ""  },
	{  "市区町村コード" : "172065",  "NO" : "000290",  "都道府県名" : "石川県",  "市区町村名" : "加賀市",  "種別" : "消火栓",  "住所" : "大聖寺東町1丁目40",  "方書" : "慈妙院加賀",  "latitude" : "36.305624",  "longitude" : "136.3185182",  "口径" : "150",  "備考" : ""  },
	{  "市区町村コード" : "172065",  "NO" : "000291",  "都道府県名" : "石川県",  "市区町村名" : "加賀市",  "種別" : "消火栓",  "住所" : "大聖寺東町1丁目53",  "方書" : "シメノドラッグ大聖寺店横",  "latitude" : "36.3057352",  "longitude" : "136.3193737",  "口径" : "150",  "備考" : ""  },
	{  "市区町村コード" : "172065",  "NO" : "000292",  "都道府県名" : "石川県",  "市区町村名" : "加賀市",  "種別" : "消火栓",  "住所" : "大聖寺東町1丁目53",  "方書" : "シメノドラック大聖寺店前方",  "latitude" : "36.3057352",  "longitude" : "136.3193737",  "口径" : "150",  "備考" : ""  },
	{  "市区町村コード" : "172065",  "NO" : "000293",  "都道府県名" : "石川県",  "市区町村名" : "加賀市",  "種別" : "消火栓",  "住所" : "大聖寺東町1丁目64",  "方書" : "蓮井病院裏",  "latitude" : "36.3063629",  "longitude" : "136.3197318",  "口径" : "75",  "備考" : ""  },
	{  "市区町村コード" : "172065",  "NO" : "000294",  "都道府県名" : "石川県",  "市区町村名" : "加賀市",  "種別" : "消火栓",  "住所" : "大聖寺東町2丁目1-2",  "方書" : "トウダ薬局裏",  "latitude" : "36.3041631",  "longitude" : "136.319021",  "口径" : "75",  "備考" : ""  },
	{  "市区町村コード" : "172065",  "NO" : "000295",  "都道府県名" : "石川県",  "市区町村名" : "加賀市",  "種別" : "消火栓",  "住所" : "大聖寺東町2丁目22",  "方書" : "ＪＡ加賀燃料スタンド",  "latitude" : "36.3050658",  "longitude" : "136.3200514",  "口径" : "100",  "備考" : ""  },
	{  "市区町村コード" : "172065",  "NO" : "000296",  "都道府県名" : "石川県",  "市区町村名" : "加賀市",  "種別" : "消火栓",  "住所" : "大聖寺東町3丁目5",  "方書" : "アメリカ村",  "latitude" : "36.3033603",  "longitude" : "136.3163269",  "口径" : "200",  "備考" : ""  },
	{  "市区町村コード" : "172065",  "NO" : "000297",  "都道府県名" : "石川県",  "市区町村名" : "加賀市",  "種別" : "消火栓",  "住所" : "大聖寺東町3丁目30",  "方書" : "",  "latitude" : "36.3043713",  "longitude" : "136.316674",  "口径" : "75",  "備考" : ""  },
	{  "市区町村コード" : "172065",  "NO" : "000298",  "都道府県名" : "石川県",  "市区町村名" : "加賀市",  "種別" : "消火栓",  "住所" : "大聖寺東町4丁目16",  "方書" : "セブンイレブン",  "latitude" : "36.3026935",  "longitude" : "136.3164422",  "口径" : "75",  "備考" : ""  },
	{  "市区町村コード" : "172065",  "NO" : "000299",  "都道府県名" : "石川県",  "市区町村名" : "加賀市",  "種別" : "消火栓",  "住所" : "大聖寺三ツ町ワ1-75",  "方書" : "竹内商事㈱裏南西",  "latitude" : "36.30086",  "longitude" : "136.2938602",  "口径" : "150",  "備考" : ""  },
	{  "市区町村コード" : "172065",  "NO" : "000300",  "都道府県名" : "石川県",  "市区町村名" : "加賀市",  "種別" : "消火栓",  "住所" : "大聖寺三ツ町ワ1-24",  "方書" : "大堤池北方",  "latitude" : "36.3003128",  "longitude" : "136.2933436",  "口径" : "100",  "備考" : ""  },
	{  "市区町村コード" : "172065",  "NO" : "000301",  "都道府県名" : "石川県",  "市区町村名" : "加賀市",  "種別" : "消火栓",  "住所" : "大聖寺三ツ町ワ1-6",  "方書" : "団地縦路入口",  "latitude" : "36.3015126",  "longitude" : "136.2930325",  "口径" : "100",  "備考" : ""  },
	{  "市区町村コード" : "172065",  "NO" : "000302",  "都道府県名" : "石川県",  "市区町村名" : "加賀市",  "種別" : "消火栓",  "住所" : "大聖寺三ツ町ワ37-8",  "方書" : "団地縦路",  "latitude" : "36.3010349",  "longitude" : "136.2928548",  "口径" : "100",  "備考" : ""  },
	{  "市区町村コード" : "172065",  "NO" : "000303",  "都道府県名" : "石川県",  "市区町村名" : "加賀市",  "種別" : "消火栓",  "住所" : "大聖寺三ツ町メ1-4",  "方書" : "団地縦路",  "latitude" : "36.3003072",  "longitude" : "136.2927409",  "口径" : "100",  "備考" : ""  },
	{  "市区町村コード" : "172065",  "NO" : "000304",  "都道府県名" : "石川県",  "市区町村名" : "加賀市",  "種別" : "消火栓",  "住所" : "大聖寺三ツ町メ1-21",  "方書" : "大堤池西方",  "latitude" : "36.299879",  "longitude" : "136.2926322",  "口径" : "100",  "備考" : ""  },
	{  "市区町村コード" : "172065",  "NO" : "000305",  "都道府県名" : "石川県",  "市区町村名" : "加賀市",  "種別" : "消火栓",  "住所" : "大聖寺三ツ町ワ21-9",  "方書" : "団地外周路付近",  "latitude" : "36.3013987",  "longitude" : "136.2920271",  "口径" : "150",  "備考" : ""  },
	{  "市区町村コード" : "172065",  "NO" : "000306",  "都道府県名" : "石川県",  "市区町村名" : "加賀市",  "種別" : "消火栓",  "住所" : "大聖寺三ツ町ワ44-2",  "方書" : "団地外周路付近",  "latitude" : "36.3007877",  "longitude" : "136.2923798",  "口径" : "100",  "備考" : ""  },
	{  "市区町村コード" : "172065",  "NO" : "000307",  "都道府県名" : "石川県",  "市区町村名" : "加賀市",  "種別" : "消火栓",  "住所" : "田尻町大峰1-202",  "方書" : "㈱ケーシー北西",  "latitude" : "36.3452891",  "longitude" : "136.3227415",  "口径" : "75",  "備考" : ""  },
	{  "市区町村コード" : "172065",  "NO" : "000308",  "都道府県名" : "石川県",  "市区町村名" : "加賀市",  "種別" : "消火栓",  "住所" : "田尻町東3",  "方書" : "㈱大家資材置場",  "latitude" : "36.3455307",  "longitude" : "136.3205834",  "口径" : "75",  "備考" : ""  },
	{  "市区町村コード" : "172065",  "NO" : "000309",  "都道府県名" : "石川県",  "市区町村名" : "加賀市",  "種別" : "消火栓",  "住所" : "田尻町西190-1",  "方書" : "㈱飯田 裏",  "latitude" : "36.3465556",  "longitude" : "136.3154201",  "口径" : "150",  "備考" : ""  },
	{  "市区町村コード" : "172065",  "NO" : "000310",  "都道府県名" : "石川県",  "市区町村名" : "加賀市",  "種別" : "消火栓",  "住所" : "田尻町南10-1",  "方書" : "ビューティサロン昌",  "latitude" : "36.3474333",  "longitude" : "136.3176282",  "口径" : "75",  "備考" : ""  },
	{  "市区町村コード" : "172065",  "NO" : "000311",  "都道府県名" : "石川県",  "市区町村名" : "加賀市",  "種別" : "消火栓",  "住所" : "田尻町オ129",  "方書" : "",  "latitude" : "36.3482138",  "longitude" : "136.3185169",  "口径" : "75",  "備考" : ""  },
	{  "市区町村コード" : "172065",  "NO" : "000312",  "都道府県名" : "石川県",  "市区町村名" : "加賀市",  "種別" : "消火栓",  "住所" : "田尻町西115",  "方書" : "㈱飯田鉄工所第一工場",  "latitude" : "36.3501636",  "longitude" : "136.3170643",  "口径" : "75",  "備考" : ""  },
	{  "市区町村コード" : "172065",  "NO" : "000313",  "都道府県名" : "石川県",  "市区町村名" : "加賀市",  "種別" : "消火栓",  "住所" : "田尻町オ87-3",  "方書" : "",  "latitude" : "36.3494165",  "longitude" : "136.3184558",  "口径" : "75",  "備考" : ""  },
	{  "市区町村コード" : "172065",  "NO" : "000314",  "都道府県名" : "石川県",  "市区町村名" : "加賀市",  "種別" : "消火栓",  "住所" : "田尻町西135-1",  "方書" : "小坂クリーニング付近",  "latitude" : "36.3494998",  "longitude" : "136.3172421",  "口径" : "100",  "備考" : ""  },
	{  "市区町村コード" : "172065",  "NO" : "000315",  "都道府県名" : "石川県",  "市区町村名" : "加賀市",  "種別" : "消火栓",  "住所" : "田尻町西123",  "方書" : "",  "latitude" : "36.349647",  "longitude" : "136.3167393",  "口径" : "75",  "備考" : ""  },
	{  "市区町村コード" : "172065",  "NO" : "000316",  "都道府県名" : "石川県",  "市区町村名" : "加賀市",  "種別" : "消火栓",  "住所" : "田尻町オ59",  "方書" : "",  "latitude" : "36.3500581",  "longitude" : "136.3181364",  "口径" : "100",  "備考" : ""  },
	{  "市区町村コード" : "172065",  "NO" : "000317",  "都道府県名" : "石川県",  "市区町村名" : "加賀市",  "種別" : "消火栓",  "住所" : "田尻町ク95-1",  "方書" : "菅原神社東方",  "latitude" : "36.3501636",  "longitude" : "136.3194418",  "口径" : "75",  "備考" : ""  },
	{  "市区町村コード" : "172065",  "NO" : "000318",  "都道府県名" : "石川県",  "市区町村名" : "加賀市",  "種別" : "消火栓",  "住所" : "田尻町西78",  "方書" : "",  "latitude" : "36.3506247",  "longitude" : "136.3172726",  "口径" : "75",  "備考" : ""  },
	{  "市区町村コード" : "172065",  "NO" : "000319",  "都道府県名" : "石川県",  "市区町村名" : "加賀市",  "種別" : "消火栓",  "住所" : "田尻町オ34",  "方書" : "",  "latitude" : "36.3510469",  "longitude" : "136.3181752",  "口径" : "100",  "備考" : ""  },
	{  "市区町村コード" : "172065",  "NO" : "000320",  "都道府県名" : "石川県",  "市区町村名" : "加賀市",  "種別" : "消火栓",  "住所" : "田尻町北75",  "方書" : "山本醤油㈱工場",  "latitude" : "36.3512719",  "longitude" : "136.3195751",  "口径" : "100",  "備考" : ""  },
	{  "市区町村コード" : "172065",  "NO" : "000321",  "都道府県名" : "石川県",  "市区町村名" : "加賀市",  "種別" : "消火栓",  "住所" : "田尻町北81",  "方書" : "",  "latitude" : "36.3512135",  "longitude" : "136.3202083",  "口径" : "75",  "備考" : ""  },
	{  "市区町村コード" : "172065",  "NO" : "000322",  "都道府県名" : "石川県",  "市区町村名" : "加賀市",  "種別" : "消火栓",  "住所" : "田尻町イ82",  "方書" : "",  "latitude" : "36.351533",  "longitude" : "136.3167309",  "口径" : "100",  "備考" : ""  },
	{  "市区町村コード" : "172065",  "NO" : "000323",  "都道府県名" : "石川県",  "市区町村名" : "加賀市",  "種別" : "消火栓",  "住所" : "田尻町北66",  "方書" : "もっく工房付近",  "latitude" : "36.3515024",  "longitude" : "136.3203722",  "口径" : "75",  "備考" : ""  },
	{  "市区町村コード" : "172065",  "NO" : "000324",  "都道府県名" : "石川県",  "市区町村名" : "加賀市",  "種別" : "消火栓",  "住所" : "田尻町イ26",  "方書" : "村中商店付近",  "latitude" : "36.3518357",  "longitude" : "136.3179919",  "口径" : "100",  "備考" : ""  },
	{  "市区町村コード" : "172065",  "NO" : "000325",  "都道府県名" : "石川県",  "市区町村名" : "加賀市",  "種別" : "消火栓",  "住所" : "田尻町浜山3-19",  "方書" : "",  "latitude" : "36.3519829",  "longitude" : "136.3167893",  "口径" : "75",  "備考" : ""  },
	{  "市区町村コード" : "172065",  "NO" : "000326",  "都道府県名" : "石川県",  "市区町村名" : "加賀市",  "種別" : "消火栓",  "住所" : "田尻町イ5-1",  "方書" : "",  "latitude" : "36.3520357",  "longitude" : "136.3180613",  "口径" : "75",  "備考" : ""  },
	{  "市区町村コード" : "172065",  "NO" : "000327",  "都道府県名" : "石川県",  "市区町村名" : "加賀市",  "種別" : "消火栓",  "住所" : "田尻町浜山3-11",  "方書" : "加賀マリンサービス",  "latitude" : "36.3524079",  "longitude" : "136.3165559",  "口径" : "100",  "備考" : ""  },
	{  "市区町村コード" : "172065",  "NO" : "000328",  "都道府県名" : "石川県",  "市区町村名" : "加賀市",  "種別" : "消火栓",  "住所" : "田尻町浜山2-8",  "方書" : "",  "latitude" : "36.3525662",  "longitude" : "136.3177919",  "口径" : "100",  "備考" : ""  },
	{  "市区町村コード" : "172065",  "NO" : "000329",  "都道府県名" : "石川県",  "市区町村名" : "加賀市",  "種別" : "消火栓",  "住所" : "田尻町北40-3",  "方書" : "谷村正幸宅付近",  "latitude" : "36.3522551",  "longitude" : "136.3203833",  "口径" : "75",  "備考" : ""  },
	{  "市区町村コード" : "172065",  "NO" : "000330",  "都道府県名" : "石川県",  "市区町村名" : "加賀市",  "種別" : "消火栓",  "住所" : "田尻町浜山2-17",  "方書" : "割烹 舟重",  "latitude" : "36.3529162",  "longitude" : "136.3193084",  "口径" : "75",  "備考" : ""  },
	{  "市区町村コード" : "172065",  "NO" : "000331",  "都道府県名" : "石川県",  "市区町村名" : "加賀市",  "種別" : "消火栓",  "住所" : "田尻町ヘ18",  "方書" : "天神橋付近",  "latitude" : "36.3531439",  "longitude" : "136.3208665",  "口径" : "250",  "備考" : ""  },
	{  "市区町村コード" : "172065",  "NO" : "000332",  "都道府県名" : "石川県",  "市区町村名" : "加賀市",  "種別" : "消火栓",  "住所" : "小塩町ろ",  "方書" : "",  "latitude" : "36.3481166",  "longitude" : "136.3144064",  "口径" : "75",  "備考" : ""  },
	{  "市区町村コード" : "172065",  "NO" : "000333",  "都道府県名" : "石川県",  "市区町村名" : "加賀市",  "種別" : "消火栓",  "住所" : "小塩町ろ152-1",  "方書" : "",  "latitude" : "36.3480166",  "longitude" : "136.3153757",  "口径" : "150",  "備考" : ""  },
	{  "市区町村コード" : "172065",  "NO" : "000334",  "都道府県名" : "石川県",  "市区町村名" : "加賀市",  "種別" : "消火栓",  "住所" : "小塩町ろ177-2",  "方書" : "",  "latitude" : "36.3487277",  "longitude" : "136.3150257",  "口径" : "75",  "備考" : ""  },
	{  "市区町村コード" : "172065",  "NO" : "000335",  "都道府県名" : "石川県",  "市区町村名" : "加賀市",  "種別" : "消火栓",  "住所" : "小塩町コ117",  "方書" : "山谷康博",  "latitude" : "36.3504831",  "longitude" : "136.3146534",  "口径" : "75",  "備考" : ""  },
	{  "市区町村コード" : "172065",  "NO" : "000336",  "都道府県名" : "石川県",  "市区町村名" : "加賀市",  "種別" : "消火栓",  "住所" : "小塩町コ157",  "方書" : "橋立小学校グラウンド",  "latitude" : "36.3504164",  "longitude" : "136.3132453",  "口径" : "100",  "備考" : ""  },
	{  "市区町村コード" : "172065",  "NO" : "000337",  "都道府県名" : "石川県",  "市区町村名" : "加賀市",  "種別" : "消火栓",  "住所" : "小塩町コ123",  "方書" : "",  "latitude" : "36.3509913",  "longitude" : "136.3143368",  "口径" : "100",  "備考" : ""  },
	{  "市区町村コード" : "172065",  "NO" : "000338",  "都道府県名" : "石川県",  "市区町村名" : "加賀市",  "種別" : "消火栓",  "住所" : "小塩町コ95",  "方書" : "",  "latitude" : "36.3511524",  "longitude" : "136.3155672",  "口径" : "100",  "備考" : ""  },
	{  "市区町村コード" : "172065",  "NO" : "000339",  "都道府県名" : "石川県",  "市区町村名" : "加賀市",  "種別" : "消火栓",  "住所" : "小塩町コ44",  "方書" : "境橋付近",  "latitude" : "36.3512135",  "longitude" : "136.311976",  "口径" : "100",  "備考" : ""  },
	{  "市区町村コード" : "172065",  "NO" : "000340",  "都道府県名" : "石川県",  "市区町村名" : "加賀市",  "種別" : "消火栓",  "住所" : "小塩町エ38",  "方書" : "",  "latitude" : "36.3516663",  "longitude" : "136.3159644",  "口径" : "100",  "備考" : ""  },
	{  "市区町村コード" : "172065",  "NO" : "000341",  "都道府県名" : "石川県",  "市区町村名" : "加賀市",  "種別" : "消火栓",  "住所" : "小塩町コ178-9",  "方書" : "アンティークハウス付近・北村建築裏",  "latitude" : "36.3524523",  "longitude" : "136.3163337",  "口径" : "100",  "備考" : ""  },
	{  "市区町村コード" : "172065",  "NO" : "000342",  "都道府県名" : "石川県",  "市区町村名" : "加賀市",  "種別" : "消火栓",  "住所" : "小塩町コ35",  "方書" : "パーマヒロイン裏",  "latitude" : "36.3522607",  "longitude" : "136.31497",  "口径" : "100",  "備考" : ""  },
	{  "市区町村コード" : "172065",  "NO" : "000343",  "都道府県名" : "石川県",  "市区町村名" : "加賀市",  "種別" : "消火栓",  "住所" : "小塩町コ26甲",  "方書" : "割烹 大漁",  "latitude" : "36.352319",  "longitude" : "136.3140285",  "口径" : "100",  "備考" : ""  },
	{  "市区町村コード" : "172065",  "NO" : "000344",  "都道府県名" : "石川県",  "市区町村名" : "加賀市",  "種別" : "消火栓",  "住所" : "小塩町人1-44",  "方書" : "中谷洋宅付近",  "latitude" : "36.3416616",  "longitude" : "136.3131149",  "口径" : "150",  "備考" : ""  },
	{  "市区町村コード" : "172065",  "NO" : "000345",  "都道府県名" : "石川県",  "市区町村名" : "加賀市",  "種別" : "消火栓",  "住所" : "小塩町ｺｰ1",  "方書" : "妙徳寺付近",  "latitude" : "36.3513052",  "longitude" : "136.3133675",  "口径" : "200",  "備考" : ""  },
	{  "市区町村コード" : "172065",  "NO" : "000346",  "都道府県名" : "石川県",  "市区町村名" : "加賀市",  "種別" : "消火栓",  "住所" : "橋立町に80",  "方書" : "ガラポン温泉",  "latitude" : "36.3470389",  "longitude" : "136.309793",  "口径" : "250",  "備考" : ""  },
	{  "市区町村コード" : "172065",  "NO" : "000347",  "都道府県名" : "石川県",  "市区町村名" : "加賀市",  "種別" : "消火栓",  "住所" : "橋立町に40",  "方書" : "",  "latitude" : "36.3483666",  "longitude" : "136.3103346",  "口径" : "250",  "備考" : ""  },
	{  "市区町村コード" : "172065",  "NO" : "000348",  "都道府県名" : "石川県",  "市区町村名" : "加賀市",  "種別" : "消火栓",  "住所" : "橋立町に29",  "方書" : "",  "latitude" : "36.3489887",  "longitude" : "136.3105068",  "口径" : "250",  "備考" : ""  },
	{  "市区町村コード" : "172065",  "NO" : "000349",  "都道府県名" : "石川県",  "市区町村名" : "加賀市",  "種別" : "消火栓",  "住所" : "橋立町ラ43",  "方書" : "蔵六園付近",  "latitude" : "36.3494776",  "longitude" : "136.3100346",  "口径" : "75",  "備考" : ""  },
	{  "市区町村コード" : "172065",  "NO" : "000350",  "都道府県名" : "石川県",  "市区町村名" : "加賀市",  "種別" : "消火栓",  "住所" : "橋立町は29",  "方書" : "",  "latitude" : "36.3500803",  "longitude" : "136.3111872",  "口径" : "250",  "備考" : ""  },
	{  "市区町村コード" : "172065",  "NO" : "000351",  "都道府県名" : "石川県",  "市区町村名" : "加賀市",  "種別" : "消火栓",  "住所" : "橋立町ロ131",  "方書" : "北前船の里資料館付近",  "latitude" : "36.3505747",  "longitude" : "136.3106039",  "口径" : "75",  "備考" : ""  },
	{  "市区町村コード" : "172065",  "NO" : "000352",  "都道府県名" : "石川県",  "市区町村名" : "加賀市",  "種別" : "消火栓",  "住所" : "橋立町イ283",  "方書" : "橋立地区会館付近",  "latitude" : "36.351583",  "longitude" : "136.3108261",  "口径" : "250",  "備考" : ""  },
	{  "市区町村コード" : "172065",  "NO" : "000353",  "都道府県名" : "石川県",  "市区町村名" : "加賀市",  "種別" : "消火栓",  "住所" : "橋立町イ乙1-1",  "方書" : "北前船の里資料館北方",  "latitude" : "36.3508636",  "longitude" : "136.3105436",  "口径" : "150",  "備考" : ""  },
	{  "市区町村コード" : "172065",  "NO" : "000354",  "都道府県名" : "石川県",  "市区町村名" : "加賀市",  "種別" : "消火栓",  "住所" : "橋立町ラ70",  "方書" : "",  "latitude" : "36.3502997",  "longitude" : "136.3091069",  "口径" : "150",  "備考" : ""  },
	{  "市区町村コード" : "172065",  "NO" : "000355",  "都道府県名" : "石川県",  "市区町村名" : "加賀市",  "種別" : "消火栓",  "住所" : "橋立町ウ147",  "方書" : "",  "latitude" : "36.3511941",  "longitude" : "136.3087486",  "口径" : "75",  "備考" : ""  },
	{  "市区町村コード" : "172065",  "NO" : "000356",  "都道府県名" : "石川県",  "市区町村名" : "加賀市",  "種別" : "消火栓",  "住所" : "橋立町ウ212-1",  "方書" : "",  "latitude" : "36.3507358",  "longitude" : "136.3065016",  "口径" : "75",  "備考" : ""  },
	{  "市区町村コード" : "172065",  "NO" : "000357",  "都道府県名" : "石川県",  "市区町村名" : "加賀市",  "種別" : "消火栓",  "住所" : "橋立町ウ196-2",  "方書" : "",  "latitude" : "36.3500914",  "longitude" : "136.3051157",  "口径" : "75",  "備考" : ""  },
	{  "市区町村コード" : "172065",  "NO" : "000358",  "都道府県名" : "石川県",  "市区町村名" : "加賀市",  "種別" : "消火栓",  "住所" : "橋立町ム16",  "方書" : "恵比寿亭本館付近",  "latitude" : "36.3519746",  "longitude" : "136.310765",  "口径" : "75",  "備考" : ""  },
	{  "市区町村コード" : "172065",  "NO" : "000359",  "都道府県名" : "石川県",  "市区町村名" : "加賀市",  "種別" : "消火栓",  "住所" : "橋立町ム89-2",  "方書" : "料亭 加佐岬手前",  "latitude" : "36.3519274",  "longitude" : "136.3100012",  "口径" : "75",  "備考" : ""  },
	{  "市区町村コード" : "172065",  "NO" : "000360",  "都道府県名" : "石川県",  "市区町村名" : "加賀市",  "種別" : "消火栓",  "住所" : "橋立町",  "方書" : "橋立自然園手前",  "latitude" : "36.3513302",  "longitude" : "136.3112316",  "口径" : "150",  "備考" : ""  },
	{  "市区町村コード" : "172065",  "NO" : "000361",  "都道府県名" : "石川県",  "市区町村名" : "加賀市",  "種別" : "消火栓",  "住所" : "橋立町",  "方書" : "橋立自然園奥側",  "latitude" : "36.3513302",  "longitude" : "136.3112316",  "口径" : "150",  "備考" : ""  },
	{  "市区町村コード" : "172065",  "NO" : "000362",  "都道府県名" : "石川県",  "市区町村名" : "加賀市",  "種別" : "消火栓",  "住所" : "深田町い117",  "方書" : "集落入口三叉路",  "latitude" : "36.34157",  "longitude" : "136.305116",  "口径" : "250",  "備考" : ""  },
	{  "市区町村コード" : "172065",  "NO" : "000363",  "都道府県名" : "石川県",  "市区町村名" : "加賀市",  "種別" : "消火栓",  "住所" : "深田町イ29",  "方書" : "",  "latitude" : "36.3421532",  "longitude" : "136.3057076",  "口径" : "100",  "備考" : ""  },
	{  "市区町村コード" : "172065",  "NO" : "000364",  "都道府県名" : "石川県",  "市区町村名" : "加賀市",  "種別" : "消火栓",  "住所" : "深田町イ90",  "方書" : "稱名寺",  "latitude" : "36.3420088",  "longitude" : "136.3048576",  "口径" : "100",  "備考" : ""  },
	{  "市区町村コード" : "172065",  "NO" : "000365",  "都道府県名" : "石川県",  "市区町村名" : "加賀市",  "種別" : "消火栓",  "住所" : "深田町イ54",  "方書" : "旧ＪＡ加賀橋立支店",  "latitude" : "36.3411506",  "longitude" : "136.3051604",  "口径" : "100",  "備考" : ""  },
	{  "市区町村コード" : "172065",  "NO" : "000366",  "都道府県名" : "石川県",  "市区町村名" : "加賀市",  "種別" : "消火栓",  "住所" : "深田町イ17",  "方書" : "",  "latitude" : "36.3415366",  "longitude" : "136.3060603",  "口径" : "75",  "備考" : ""  },
	{  "市区町村コード" : "172065",  "NO" : "000367",  "都道府県名" : "石川県",  "市区町村名" : "加賀市",  "種別" : "消火栓",  "住所" : "深田町ろ7",  "方書" : "",  "latitude" : "36.340795",  "longitude" : "136.305241",  "口径" : "200",  "備考" : ""  },
	{  "市区町村コード" : "172065",  "NO" : "000368",  "都道府県名" : "石川県",  "市区町村名" : "加賀市",  "種別" : "消火栓",  "住所" : "深田町イ7甲",  "方書" : "",  "latitude" : "36.3408145",  "longitude" : "136.3061325",  "口径" : "75",  "備考" : ""  },
	{  "市区町村コード" : "172065",  "NO" : "000369",  "都道府県名" : "石川県",  "市区町村名" : "加賀市",  "種別" : "消火栓",  "住所" : "宮町ヲ39",  "方書" : "",  "latitude" : "36.3399534",  "longitude" : "136.3119208",  "口径" : "200",  "備考" : ""  },
	{  "市区町村コード" : "172065",  "NO" : "000370",  "都道府県名" : "石川県",  "市区町村名" : "加賀市",  "種別" : "消火栓",  "住所" : "宮町い48",  "方書" : "",  "latitude" : "36.3391674",  "longitude" : "136.3124402",  "口径" : "200",  "備考" : ""  },
	{  "市区町村コード" : "172065",  "NO" : "000371",  "都道府県名" : "石川県",  "市区町村名" : "加賀市",  "種別" : "消火栓",  "住所" : "黒崎町ヌ74",  "方書" : "",  "latitude" : "36.3388313",  "longitude" : "136.2940757",  "口径" : "75",  "備考" : ""  },
	{  "市区町村コード" : "172065",  "NO" : "000372",  "都道府県名" : "石川県",  "市区町村名" : "加賀市",  "種別" : "消火栓",  "住所" : "黒崎町チ96",  "方書" : "",  "latitude" : "36.338648",  "longitude" : "136.2956255",  "口径" : "100",  "備考" : ""  },
	{  "市区町村コード" : "172065",  "NO" : "000373",  "都道府県名" : "石川県",  "市区町村名" : "加賀市",  "種別" : "消火栓",  "住所" : "黒崎町ヌ97",  "方書" : "",  "latitude" : "36.3382147",  "longitude" : "136.2942534",  "口径" : "100",  "備考" : ""  },
	{  "市区町村コード" : "172065",  "NO" : "000374",  "都道府県名" : "石川県",  "市区町村名" : "加賀市",  "種別" : "消火栓",  "住所" : "黒崎町ヌ87",  "方書" : "",  "latitude" : "36.3382036",  "longitude" : "136.2931814",  "口径" : "75",  "備考" : ""  },
	{  "市区町村コード" : "172065",  "NO" : "000375",  "都道府県名" : "石川県",  "市区町村名" : "加賀市",  "種別" : "消火栓",  "住所" : "黒崎町ヌ131",  "方書" : "入野工務店付近",  "latitude" : "36.3376564",  "longitude" : "136.2935175",  "口径" : "100",  "備考" : ""  },
	{  "市区町村コード" : "172065",  "NO" : "000376",  "都道府県名" : "石川県",  "市区町村名" : "加賀市",  "種別" : "消火栓",  "住所" : "黒崎町ヌ128",  "方書" : "",  "latitude" : "36.3373787",  "longitude" : "136.2928037",  "口径" : "75",  "備考" : ""  },
	{  "市区町村コード" : "172065",  "NO" : "000377",  "都道府県名" : "石川県",  "市区町村名" : "加賀市",  "種別" : "消火栓",  "住所" : "黒崎町子11",  "方書" : "",  "latitude" : "36.337062",  "longitude" : "136.2942174",  "口径" : "75",  "備考" : ""  },
	{  "市区町村コード" : "172065",  "NO" : "000378",  "都道府県名" : "石川県",  "市区町村名" : "加賀市",  "種別" : "消火栓",  "住所" : "黒崎町ル17",  "方書" : "れこーど館裏付近",  "latitude" : "36.336526",  "longitude" : "136.294073",  "口径" : "100",  "備考" : ""  },
	{  "市区町村コード" : "172065",  "NO" : "000379",  "都道府県名" : "石川県",  "市区町村名" : "加賀市",  "種別" : "消火栓",  "住所" : "黒崎町ル92",  "方書" : "",  "latitude" : "36.3357177",  "longitude" : "136.2924649",  "口径" : "75",  "備考" : ""  },
	{  "市区町村コード" : "172065",  "NO" : "000380",  "都道府県名" : "石川県",  "市区町村名" : "加賀市",  "種別" : "消火栓",  "住所" : "黒崎町ゆ162",  "方書" : "㈲暁　技研",  "latitude" : "36.3378897",  "longitude" : "136.295945",  "口径" : "300",  "備考" : ""  },
	{  "市区町村コード" : "172065",  "NO" : "000381",  "都道府県名" : "石川県",  "市区町村名" : "加賀市",  "種別" : "消火栓",  "住所" : "黒崎町ゆ152",  "方書" : "",  "latitude" : "36.3378009",  "longitude" : "136.2961672",  "口径" : "100",  "備考" : ""  },
	{  "市区町村コード" : "172065",  "NO" : "000382",  "都道府県名" : "石川県",  "市区町村名" : "加賀市",  "種別" : "消火栓",  "住所" : "黒崎町ゆ205",  "方書" : "黒崎町公民館裏角",  "latitude" : "36.3370509",  "longitude" : "136.2962754",  "口径" : "100",  "備考" : ""  },
	{  "市区町村コード" : "172065",  "NO" : "000383",  "都道府県名" : "石川県",  "市区町村名" : "加賀市",  "種別" : "消火栓",  "住所" : "黒崎町ゆ218",  "方書" : "杉山建築付近",  "latitude" : "36.3369482",  "longitude" : "136.29597",  "口径" : "75",  "備考" : ""  },
	{  "市区町村コード" : "172065",  "NO" : "000384",  "都道府県名" : "石川県",  "市区町村名" : "加賀市",  "種別" : "消火栓",  "住所" : "黒崎町ゆ248",  "方書" : "山口紀美子宅付近",  "latitude" : "36.3369482",  "longitude" : "136.29597",  "口径" : "100",  "備考" : ""  },
	{  "市区町村コード" : "172065",  "NO" : "000385",  "都道府県名" : "石川県",  "市区町村名" : "加賀市",  "種別" : "消火栓",  "住所" : "黒崎町め41-1",  "方書" : "黒崎小学校西方",  "latitude" : "36.3362427",  "longitude" : "136.2942397",  "口径" : "200",  "備考" : ""  },
	{  "市区町村コード" : "172065",  "NO" : "000386",  "都道府県名" : "石川県",  "市区町村名" : "加賀市",  "種別" : "消火栓",  "住所" : "黒崎町ゆ172",  "方書" : "",  "latitude" : "36.3380231",  "longitude" : "136.2971615",  "口径" : "75",  "備考" : ""  },
	{  "市区町村コード" : "172065",  "NO" : "000387",  "都道府県名" : "石川県",  "市区町村名" : "加賀市",  "種別" : "消火栓",  "住所" : "黒崎町ゆ199",  "方書" : "",  "latitude" : "36.3372704",  "longitude" : "136.2969226",  "口径" : "100",  "備考" : ""  },
	{  "市区町村コード" : "172065",  "NO" : "000388",  "都道府県名" : "石川県",  "市区町村名" : "加賀市",  "種別" : "消火栓",  "住所" : "黒崎町あ29",  "方書" : "角出合繊社宅付近",  "latitude" : "36.3321236",  "longitude" : "136.301764",  "口径" : "300",  "備考" : ""  },
	{  "市区町村コード" : "172065",  "NO" : "000389",  "都道府県名" : "石川県",  "市区町村名" : "加賀市",  "種別" : "消火栓",  "住所" : "黒崎町あ13",  "方書" : "㈱三洋精機",  "latitude" : "36.3321959",  "longitude" : "136.3018333",  "口径" : "300",  "備考" : ""  },
	{  "市区町村コード" : "172065",  "NO" : "000390",  "都道府県名" : "石川県",  "市区町村名" : "加賀市",  "種別" : "消火栓",  "住所" : "黒崎町あ13",  "方書" : "小谷正義斜め前",  "latitude" : "36.3321959",  "longitude" : "136.3018333",  "口径" : "300",  "備考" : ""  },
	{  "市区町村コード" : "172065",  "NO" : "000391",  "都道府県名" : "石川県",  "市区町村名" : "加賀市",  "種別" : "消火栓",  "住所" : "高尾町シ1",  "方書" : "岡田造園",  "latitude" : "36.3274242",  "longitude" : "136.3123516",  "口径" : "300",  "備考" : ""  },
	{  "市区町村コード" : "172065",  "NO" : "000392",  "都道府県名" : "石川県",  "市区町村名" : "加賀市",  "種別" : "消火栓",  "住所" : "高尾町シ2-4",  "方書" : "平　雅慈宅付近",  "latitude" : "36.3259966",  "longitude" : "136.3134516",  "口径" : "100",  "備考" : ""  },
	{  "市区町村コード" : "172065",  "NO" : "000393",  "都道府県名" : "石川県",  "市区町村名" : "加賀市",  "種別" : "消火栓",  "住所" : "高尾町メ1-25",  "方書" : "㈲カワモト",  "latitude" : "36.3273576",  "longitude" : "136.3152235",  "口径" : "100",  "備考" : ""  },
	{  "市区町村コード" : "172065",  "NO" : "000394",  "都道府県名" : "石川県",  "市区町村名" : "加賀市",  "種別" : "消火栓",  "住所" : "高尾町ヌ1",  "方書" : "山下　勉宅付近",  "latitude" : "36.3251384",  "longitude" : "136.3151125",  "口径" : "300",  "備考" : ""  },
	{  "市区町村コード" : "172065",  "NO" : "000395",  "都道府県名" : "石川県",  "市区町村名" : "加賀市",  "種別" : "消火栓",  "住所" : "高尾町ヌ3-3",  "方書" : "高尾町交差点",  "latitude" : "36.32538",  "longitude" : "136.3150097",  "口径" : "300",  "備考" : ""  },
	{  "市区町村コード" : "172065",  "NO" : "000396",  "都道府県名" : "石川県",  "市区町村名" : "加賀市",  "種別" : "消火栓",  "住所" : "高尾町マ50",  "方書" : "",  "latitude" : "36.3272687",  "longitude" : "136.3169289",  "口径" : "200",  "備考" : ""  },
	{  "市区町村コード" : "172065",  "NO" : "000397",  "都道府県名" : "石川県",  "市区町村名" : "加賀市",  "種別" : "消火栓",  "住所" : "高尾町ヤ45",  "方書" : "",  "latitude" : "36.3286325",  "longitude" : "136.3185759",  "口径" : "200",  "備考" : ""  },
	{  "市区町村コード" : "172065",  "NO" : "000398",  "都道府県名" : "石川県",  "市区町村名" : "加賀市",  "種別" : "消火栓",  "住所" : "高尾町ヤ21",  "方書" : "",  "latitude" : "36.3300434",  "longitude" : "136.3193368",  "口径" : "200",  "備考" : ""  },
	{  "市区町村コード" : "172065",  "NO" : "000399",  "都道府県名" : "石川県",  "市区町村名" : "加賀市",  "種別" : "消火栓",  "住所" : "高尾町ヤ8",  "方書" : "",  "latitude" : "36.3308877",  "longitude" : "136.3195311",  "口径" : "100",  "備考" : ""  },
	{  "市区町村コード" : "172065",  "NO" : "000400",  "都道府県名" : "石川県",  "市区町村名" : "加賀市",  "種別" : "消火栓",  "住所" : "高尾町",  "方書" : "北日本電子前",  "latitude" : "36.3300434",  "longitude" : "136.3193368",  "口径" : "100",  "備考" : ""  },
	{  "市区町村コード" : "172065",  "NO" : "000401",  "都道府県名" : "石川県",  "市区町村名" : "加賀市",  "種別" : "消火栓",  "住所" : "片野町ス35",  "方書" : "",  "latitude" : "36.3239688",  "longitude" : "136.2860243",  "口径" : "75",  "備考" : ""  },
	{  "市区町村コード" : "172065",  "NO" : "000402",  "都道府県名" : "石川県",  "市区町村名" : "加賀市",  "種別" : "消火栓",  "住所" : "片野町4-69",  "方書" : "県道三叉路",  "latitude" : "36.3241688",  "longitude" : "136.2844661",  "口径" : "75",  "備考" : ""  },
	{  "市区町村コード" : "172065",  "NO" : "000403",  "都道府県名" : "石川県",  "市区町村名" : "加賀市",  "種別" : "消火栓",  "住所" : "片野町4-43",  "方書" : "",  "latitude" : "36.3249882",  "longitude" : "136.2847549",  "口径" : "75",  "備考" : ""  },
	{  "市区町村コード" : "172065",  "NO" : "000404",  "都道府県名" : "石川県",  "市区町村名" : "加賀市",  "種別" : "消火栓",  "住所" : "片野町4-10",  "方書" : "片野町公民館付近",  "latitude" : "36.3244077",  "longitude" : "136.2832467",  "口径" : "100",  "備考" : ""  },
	{  "市区町村コード" : "172065",  "NO" : "000405",  "都道府県名" : "石川県",  "市区町村名" : "加賀市",  "種別" : "消火栓",  "住所" : "片野町3-34",  "方書" : "瓦工事シンタク裏",  "latitude" : "36.3240078",  "longitude" : "136.2823384",  "口径" : "100",  "備考" : ""  },
	{  "市区町村コード" : "172065",  "NO" : "000406",  "都道府県名" : "石川県",  "市区町村名" : "加賀市",  "種別" : "消火栓",  "住所" : "片野町3-28",  "方書" : "",  "latitude" : "36.323655",  "longitude" : "136.2822218",  "口径" : "200",  "備考" : ""  },
	{  "市区町村コード" : "172065",  "NO" : "000407",  "都道府県名" : "石川県",  "市区町村名" : "加賀市",  "種別" : "消火栓",  "住所" : "片野町3-18",  "方書" : "",  "latitude" : "36.3233745",  "longitude" : "136.2807581",  "口径" : "200",  "備考" : ""  },
	{  "市区町村コード" : "172065",  "NO" : "000408",  "都道府県名" : "石川県",  "市区町村名" : "加賀市",  "種別" : "消火栓",  "住所" : "片野町2-8-2",  "方書" : "旧加賀吉水片野荘手前　",  "latitude" : "36.3223719",  "longitude" : "136.2787027",  "口径" : "150",  "備考" : ""  },
	{  "市区町村コード" : "172065",  "NO" : "000409",  "都道府県名" : "石川県",  "市区町村名" : "加賀市",  "種別" : "消火栓",  "住所" : "片野町",  "方書" : "加賀海岸自然休養林",  "latitude" : "36.3240439",  "longitude" : "136.2833717",  "口径" : "100",  "備考" : ""  },
	{  "市区町村コード" : "172065",  "NO" : "000410",  "都道府県名" : "石川県",  "市区町村名" : "加賀市",  "種別" : "消火栓",  "住所" : "豊町い83",  "方書" : "加賀フルーツランド入口",  "latitude" : "36.3296739",  "longitude" : "136.3083132",  "口径" : "300",  "備考" : ""  },
	{  "市区町村コード" : "172065",  "NO" : "000411",  "都道府県名" : "石川県",  "市区町村名" : "加賀市",  "種別" : "消火栓",  "住所" : "豊町",  "方書" : "県立錦城特別支援学校",  "latitude" : "36.3266826",  "longitude" : "136.3057719",  "口径" : "75",  "備考" : ""  },
	{  "市区町村コード" : "172065",  "NO" : "000412",  "都道府県名" : "石川県",  "市区町村名" : "加賀市",  "種別" : "消火栓",  "住所" : "熊坂町チ92(花房)",  "方書" : "",  "latitude" : "36.2953333",  "longitude" : "136.3075894",  "口径" : "75",  "備考" : ""  },
	{  "市区町村コード" : "172065",  "NO" : "000413",  "都道府県名" : "石川県",  "市区町村名" : "加賀市",  "種別" : "消火栓",  "住所" : "熊坂町チ49(花房)",  "方書" : "",  "latitude" : "36.2946139",  "longitude" : "136.3074728",  "口径" : "75",  "備考" : ""  },
	{  "市区町村コード" : "172065",  "NO" : "000414",  "都道府県名" : "石川県",  "市区町村名" : "加賀市",  "種別" : "消火栓",  "住所" : "熊坂町チ58(花房)",  "方書" : "",  "latitude" : "36.2945833",  "longitude" : "136.306959",  "口径" : "75",  "備考" : ""  },
	{  "市区町村コード" : "172065",  "NO" : "000415",  "都道府県名" : "石川県",  "市区町村名" : "加賀市",  "種別" : "消火栓",  "住所" : "熊坂町チ33(花房)",  "方書" : "",  "latitude" : "36.2942334",  "longitude" : "136.3065424",  "口径" : "75",  "備考" : ""  },
	{  "市区町村コード" : "172065",  "NO" : "000416",  "都道府県名" : "石川県",  "市区町村名" : "加賀市",  "種別" : "消火栓",  "住所" : "熊坂町リ11-1(花房)",  "方書" : "大聖寺実高校門手前",  "latitude" : "36.2964525",  "longitude" : "136.3075624",  "口径" : "150",  "備考" : ""  },
	{  "市区町村コード" : "172065",  "NO" : "000417",  "都道府県名" : "石川県",  "市区町村名" : "加賀市",  "種別" : "消火栓",  "住所" : "熊坂町レ49-9(花房)",  "方書" : "花房交差点西方",  "latitude" : "36.2963553",  "longitude" : "136.304562",  "口径" : "150",  "備考" : ""  },
	{  "市区町村コード" : "172065",  "NO" : "000418",  "都道府県名" : "石川県",  "市区町村名" : "加賀市",  "種別" : "消火栓",  "住所" : "熊坂町ｷ181(北原)",  "方書" : "",  "latitude" : "36.2811012",  "longitude" : "136.293086",  "口径" : "75",  "備考" : ""  },
	{  "市区町村コード" : "172065",  "NO" : "000419",  "都道府県名" : "石川県",  "市区町村名" : "加賀市",  "種別" : "消火栓",  "住所" : "熊坂町ク80(吉岡)",  "方書" : "",  "latitude" : "36.2918529",  "longitude" : "136.2988211",  "口径" : "150",  "備考" : ""  },
	{  "市区町村コード" : "172065",  "NO" : "000420",  "都道府県名" : "石川県",  "市区町村名" : "加賀市",  "種別" : "消火栓",  "住所" : "熊坂町ク70(吉岡)",  "方書" : "",  "latitude" : "36.2921639",  "longitude" : "136.2986989",  "口径" : "75",  "備考" : ""  },
	{  "市区町村コード" : "172065",  "NO" : "000421",  "都道府県名" : "石川県",  "市区町村名" : "加賀市",  "種別" : "消火栓",  "住所" : "熊坂町ク42(吉岡)",  "方書" : "",  "latitude" : "36.2926556",  "longitude" : "136.2994072",  "口径" : "150",  "備考" : ""  },
	{  "市区町村コード" : "172065",  "NO" : "000422",  "都道府県名" : "石川県",  "市区町村名" : "加賀市",  "種別" : "消火栓",  "住所" : "熊坂町3-136-1",  "方書" : "",  "latitude" : "36.297966",  "longitude" : "136.2990543",  "口径" : "250",  "備考" : ""  },
	{  "市区町村コード" : "172065",  "NO" : "000423",  "都道府県名" : "石川県",  "市区町村名" : "加賀市",  "種別" : "消火栓",  "住所" : "熊坂町3-28-2",  "方書" : "㈲高木鉄工建設付近",  "latitude" : "36.29703",  "longitude" : "136.2979182",  "口径" : "250",  "備考" : ""  },
	{  "市区町村コード" : "172065",  "NO" : "000424",  "都道府県名" : "石川県",  "市区町村名" : "加賀市",  "種別" : "消火栓",  "住所" : "熊坂町平山2-3",  "方書" : "加賀松下電器㈱裏",  "latitude" : "36.2949386",  "longitude" : "136.2981238",  "口径" : "250",  "備考" : ""  },
	{  "市区町村コード" : "172065",  "NO" : "000425",  "都道府県名" : "石川県",  "市区町村名" : "加賀市",  "種別" : "消火栓",  "住所" : "熊坂町ユ128(畑岡)",  "方書" : "",  "latitude" : "36.2850119",  "longitude" : "136.2955717",  "口径" : "100",  "備考" : ""  },
	{  "市区町村コード" : "172065",  "NO" : "000426",  "都道府県名" : "石川県",  "市区町村名" : "加賀市",  "種別" : "消火栓",  "住所" : "熊坂町ユ91(畑岡)",  "方書" : "",  "latitude" : "36.2842703",  "longitude" : "136.2954856",  "口径" : "100",  "備考" : ""  },
	{  "市区町村コード" : "172065",  "NO" : "000427",  "都道府県名" : "石川県",  "市区町村名" : "加賀市",  "種別" : "消火栓",  "住所" : "熊坂町キ44(畑岡)",  "方書" : "",  "latitude" : "36.2837954",  "longitude" : "136.2947885",  "口径" : "100",  "備考" : ""  },
	{  "市区町村コード" : "172065",  "NO" : "000428",  "都道府県名" : "石川県",  "市区町村名" : "加賀市",  "種別" : "消火栓",  "住所" : "熊坂町ヤ45(庄司谷)",  "方書" : "㈱きだち",  "latitude" : "36.2903696",  "longitude" : "136.2944411",  "口径" : "200",  "備考" : ""  },
	{  "市区町村コード" : "172065",  "NO" : "000429",  "都道府県名" : "石川県",  "市区町村名" : "加賀市",  "種別" : "消火栓",  "住所" : "熊坂町ヤ22(庄司谷)",  "方書" : "㈱きだち",  "latitude" : "36.2905751",  "longitude" : "136.2942078",  "口径" : "200",  "備考" : ""  },
	{  "市区町村コード" : "172065",  "NO" : "000430",  "都道府県名" : "石川県",  "市区町村名" : "加賀市",  "種別" : "消火栓",  "住所" : "熊坂町オ248(庄司谷)",  "方書" : "旧JA加賀熊坂支店",  "latitude" : "36.288592",  "longitude" : "136.2952716",  "口径" : "200",  "備考" : ""  },
	{  "市区町村コード" : "172065",  "NO" : "000431",  "都道府県名" : "石川県",  "市区町村名" : "加賀市",  "種別" : "消火栓",  "住所" : "熊坂町マ40(庄司谷)",  "方書" : "",  "latitude" : "36.2881615",  "longitude" : "136.2947021",  "口径" : "200",  "備考" : ""  },
	{  "市区町村コード" : "172065",  "NO" : "000432",  "都道府県名" : "石川県",  "市区町村名" : "加賀市",  "種別" : "消火栓",  "住所" : "熊坂町サ27(庄司谷)",  "方書" : "",  "latitude" : "36.2875366",  "longitude" : "136.2949633",  "口径" : "200",  "備考" : ""  },
	{  "市区町村コード" : "172065",  "NO" : "000433",  "都道府県名" : "石川県",  "市区町村名" : "加賀市",  "種別" : "消火栓",  "住所" : "熊坂町マ96(庄司谷)",  "方書" : "",  "latitude" : "36.2866561",  "longitude" : "136.2941107",  "口径" : "200",  "備考" : ""  },
	{  "市区町村コード" : "172065",  "NO" : "000434",  "都道府県名" : "石川県",  "市区町村名" : "加賀市",  "種別" : "消火栓",  "住所" : "熊坂町テ10(北原)",  "方書" : "",  "latitude" : "36.2845972",  "longitude" : "136.2932595",  "口径" : "150",  "備考" : ""  },
	{  "市区町村コード" : "172065",  "NO" : "000435",  "都道府県名" : "石川県",  "市区町村名" : "加賀市",  "種別" : "消火栓",  "住所" : "熊坂町ア179(北原)",  "方書" : "",  "latitude" : "36.2832398",  "longitude" : "136.2928164",  "口径" : "150",  "備考" : ""  },
	{  "市区町村コード" : "172065",  "NO" : "000436",  "都道府県名" : "石川県",  "市区町村名" : "加賀市",  "種別" : "消火栓",  "住所" : "熊坂町ア122(北原)",  "方書" : "",  "latitude" : "36.2822594",  "longitude" : "136.2924165",  "口径" : "150",  "備考" : ""  },
	{  "市区町村コード" : "172065",  "NO" : "000437",  "都道府県名" : "石川県",  "市区町村名" : "加賀市",  "種別" : "消火栓",  "住所" : "熊坂町ア102(北原)",  "方書" : "",  "latitude" : "36.2816511",  "longitude" : "136.2923805",  "口径" : "150",  "備考" : ""  },
	{  "市区町村コード" : "172065",  "NO" : "000438",  "都道府県名" : "石川県",  "市区町村名" : "加賀市",  "種別" : "消火栓",  "住所" : "熊坂町ア78(北原)",  "方書" : "",  "latitude" : "36.2830759",  "longitude" : "136.2925276",  "口径" : "100",  "備考" : ""  },
	{  "市区町村コード" : "172065",  "NO" : "000439",  "都道府県名" : "石川県",  "市区町村名" : "加賀市",  "種別" : "消火栓",  "住所" : "熊坂町チ113（花房）",  "方書" : "花房跨線橋下",  "latitude" : "36.2963859",  "longitude" : "136.3085782",  "口径" : "75",  "備考" : ""  },
	{  "市区町村コード" : "172065",  "NO" : "000440",  "都道府県名" : "石川県",  "市区町村名" : "加賀市",  "種別" : "消火栓",  "住所" : "熊坂町ハ87-2",  "方書" : "南海ハイツ　　　　　　　　　　",  "latitude" : "36.3010883",  "longitude" : "136.3117803",  "口径" : "100",  "備考" : ""  },
	{  "市区町村コード" : "172065",  "NO" : "000441",  "都道府県名" : "石川県",  "市区町村名" : "加賀市",  "種別" : "消火栓",  "住所" : "熊坂町イ136",  "方書" : "駅前ロータリー花壇内",  "latitude" : "36.3006356",  "longitude" : "136.314205",  "口径" : "100",  "備考" : ""  },
	{  "市区町村コード" : "172065",  "NO" : "000442",  "都道府県名" : "石川県",  "市区町村名" : "加賀市",  "種別" : "消火栓",  "住所" : "熊坂町ニ18-1",  "方書" : "信開ドムス大聖寺駅前",  "latitude" : "36.3006411",  "longitude" : "136.312708",  "口径" : "150",  "備考" : ""  },
	{  "市区町村コード" : "172065",  "NO" : "000443",  "都道府県名" : "石川県",  "市区町村名" : "加賀市",  "種別" : "消火栓",  "住所" : "熊坂町ニ32",  "方書" : "大同工業㈱厚生館",  "latitude" : "36.3002134",  "longitude" : "136.312883",  "口径" : "150",  "備考" : ""  },
	{  "市区町村コード" : "172065",  "NO" : "000444",  "都道府県名" : "石川県",  "市区町村名" : "加賀市",  "種別" : "消火栓",  "住所" : "熊坂町ホ83-6",  "方書" : "稲葉指圧治療院　　　　　　　　",  "latitude" : "36.2983163",  "longitude" : "136.3106167",  "口径" : "150",  "備考" : ""  },
	{  "市区町村コード" : "172065",  "NO" : "000445",  "都道府県名" : "石川県",  "市区町村名" : "加賀市",  "種別" : "消火栓",  "住所" : "熊坂町ホ27-1",  "方書" : "熊坂工業所",  "latitude" : "36.297808",  "longitude" : "136.3095918",  "口径" : "150",  "備考" : ""  },
	{  "市区町村コード" : "172065",  "NO" : "000446",  "都道府県名" : "石川県",  "市区町村名" : "加賀市",  "種別" : "消火栓",  "住所" : "熊坂町ホ38-2",  "方書" : "喫茶よりみち",  "latitude" : "36.2970053",  "longitude" : "136.3085337",  "口径" : "150",  "備考" : ""  },
	{  "市区町村コード" : "172065",  "NO" : "000447",  "都道府県名" : "石川県",  "市区町村名" : "加賀市",  "種別" : "消火栓",  "住所" : "熊坂町ハ31",  "方書" : "たちばな保育園付近",  "latitude" : "36.3010382",  "longitude" : "136.3101415",  "口径" : "150",  "備考" : ""  },
	{  "市区町村コード" : "172065",  "NO" : "000448",  "都道府県名" : "石川県",  "市区町村名" : "加賀市",  "種別" : "消火栓",  "住所" : "三木町チ36",  "方書" : "ゲームレスト三木裏　　　　　　",  "latitude" : "36.2978407",  "longitude" : "136.2790119",  "口径" : "200",  "備考" : ""  },
	{  "市区町村コード" : "172065",  "NO" : "000449",  "都道府県名" : "石川県",  "市区町村名" : "加賀市",  "種別" : "消火栓",  "住所" : "三木町チ48",  "方書" : "",  "latitude" : "36.2970991",  "longitude" : "136.278548",  "口径" : "200",  "備考" : ""  },
	{  "市区町村コード" : "172065",  "NO" : "000450",  "都道府県名" : "石川県",  "市区町村名" : "加賀市",  "種別" : "消火栓",  "住所" : "三木町ト188-1",  "方書" : "",  "latitude" : "36.2978352",  "longitude" : "136.2816366",  "口径" : "200",  "備考" : ""  },
	{  "市区町村コード" : "172065",  "NO" : "000451",  "都道府県名" : "石川県",  "市区町村名" : "加賀市",  "種別" : "消火栓",  "住所" : "三木町36-53",  "方書" : "西本木材",  "latitude" : "36.2969992",  "longitude" : "136.2841975",  "口径" : "75",  "備考" : ""  },
	{  "市区町村コード" : "172065",  "NO" : "000452",  "都道府県名" : "石川県",  "市区町村名" : "加賀市",  "種別" : "消火栓",  "住所" : "三木町ト224-1",  "方書" : "ヘアーハウスいちかわ　　　　　",  "latitude" : "36.2967547",  "longitude" : "136.2828087",  "口径" : "100",  "備考" : ""  },
	{  "市区町村コード" : "172065",  "NO" : "000453",  "都道府県名" : "石川県",  "市区町村名" : "加賀市",  "種別" : "消火栓",  "住所" : "三木町36-97",  "方書" : "",  "latitude" : "36.296577",  "longitude" : "136.2835225",  "口径" : "100",  "備考" : ""  },
	{  "市区町村コード" : "172065",  "NO" : "000454",  "都道府県名" : "石川県",  "市区町村名" : "加賀市",  "種別" : "消火栓",  "住所" : "三木町36-59",  "方書" : "",  "latitude" : "36.2962381",  "longitude" : "136.2842753",  "口径" : "75",  "備考" : ""  },